name,latitude,longitude,population
Melekeok,7.50043,134.62355,0
Palikir - National Government Center,6.92477,158.16109,0
Haselbachtal,51.2357,14.02576,0
Guam Government House,13.47191,144.74978,0
Chasse Royale,50.42842,3.95001,0
Burg Unter-Falkenstein,47.7044,12.10466,0
Plymouth,16.70555,-62.21292,0
RMI Capitol,7.08931,171.3805,0
Cambebba,-3.62092,-38.82913,0
Brades,16.79183,-62.21058,1000
Rio das Ostras,-22.52694,-41.945,100000
Yafo,32.05043,34.75224,100000
Kamieniec Podolski,48.6845,26.58559,100000
Tagiura,32.88167,13.35056,100000
M’Sila,35.70583,4.54194,100000
P’yŏngsŏng,39.24639,125.87194,100000
Kangding,30.05127,101.96033,100000
Subotica,46.1,19.66667,100000
Alamar,23.15833,-82.27694,100000
Becontree,51.5529,0.129,100000
Horad Barysaw,54.2279,28.505,100000
Colonia Lindavista,19.49156,-99.12475,100000
Airoli,19.15096,72.99625,100000
Tekstil’shchiki,55.70033,37.74271,100000
Zhu Cheng City,35.99502,119.40259,1000000
Shivaji Nagar,18.53017,73.85263,1000000
Telde,27.99243,-15.41915,100015
Worcester,52.18935,-2.22001,100023
Punta Cana,18.58182,-68.40431,100023
Temecula,33.49364,-117.14836,100097
Trier,49.75565,6.63935,100129
Phagwāra,31.2185,75.77166,100146
Odessa,46.47747,30.73262,1001558
Kalmunai,7.40902,81.83472,100171
Jieyang,23.5418,116.36581,1001985
Kūhdasht,33.53335,47.60999,100208
Nova Iguaçu,-22.75917,-43.45111,1002118
São Paulo,-23.5475,-46.63611,10021295
Zonguldak,41.45139,31.79305,100229
Ust’-Ilimsk,58.00056,102.66194,100271
Tiébo,14.63333,-16.23333,100289
Magangué,9.24202,-74.75467,100313
Linxi,39.71183,118.44954,100316
Lianjiang,21.64673,110.28172,100341
Chikushino-shi,33.49631,130.5156,100353
Centennial,39.57916,-104.87692,100377
Martínez de la Torre,20.07082,-97.06078,100377
Playa del Carmen,20.6274,-87.07987,100383
Kōnan,35.33165,136.87042,100389
Sakata,38.91667,139.855,100446
Vāsco Da Gāma,15.39585,73.81568,100485
Qalyūb,30.17922,31.2056,100495
Padangsidempuan,1.37952,99.27146,100561
Itārsi,22.61477,77.76222,100574
Grogol,-7.60111,110.81861,100613
Bendigo,-36.75818,144.28024,100617
Narita,35.78333,140.31667,100641
Kallithéa,37.95,23.7,100641
Anyama,5.49462,-4.05183,100653
Glazov,58.1393,52.658,100676
Abū Kabīr,30.72508,31.67148,100684
Nandurbār,21.36608,74.23955,100703
Itaguaí,-22.85222,-43.77528,100752
Luofeng,37.36497,120.40997,100774
Jamālpur,25.31258,86.48888,100780
Shāhreẕā,32.03389,51.87944,100790
El Progreso,15.4,-87.8,100810
Solikamsk,59.6316,56.7685,100812
Oum el Bouaghi,35.87541,7.11353,100821
Funchal,32.63333,-16.9,100847
Navapolatsk,55.5318,28.5987,100885
Elbasan,41.1125,20.08222,100903
Assis,-22.66167,-50.41222,100911
Coronel Fabriciano,-19.51861,-42.62889,100916
Guarapari,-20.65367,-40.50204,100925
Qinzhou,21.97296,108.62612,100996
Novyye Cherëmushki,55.7,37.58333,101000
Ryazanskiy,55.73333,37.76667,101000
Cherëmushki,55.66473,37.56135,101000
Jolo,6.05222,121.00222,101002
Ciudad Guzmán,19.70466,-103.4617,101010
Guaíba,-30.11389,-51.325,101024
Mezhdurechensk,53.69417,88.06028,101026
Urdaneta,15.97611,120.57111,101037
Udgīr,18.39258,77.11756,101064
Mokopane,-24.19436,29.00974,101090
Tartu,58.38062,26.72509,101092
Vanadzor,40.80456,44.4939,101098
Daly City,37.70577,-122.46192,101123
Tonghae,37.54389,129.10694,101128
Tokuyama,34.05,131.81667,101133
Volgograd,48.71939,44.50183,1011417
South Bend,41.68338,-86.25001,101168
Teófilo Otoni,-17.8575,-41.50528,101170
Gillingham,51.38914,0.54863,101187
Colatina,-19.53944,-40.63056,101190
Lower Hutt,-41.21667,174.91667,101194
Chakwāl,32.93338,72.85853,101200
Medina Estates,5.6658,-0.16307,101207
Barretos,-20.55722,-48.56778,101220
Miriālgūda,16.8722,79.56247,101234
Witten,51.44362,7.35258,101247
Olomouc,49.59552,17.25175,101268
Jagādhri,30.16719,77.30367,101300
Maladzyechna,54.3167,26.854,101300
Dartmouth,44.67134,-63.57719,101343
Basildon,51.56844,0.45782,101362
Seonī,22.08664,79.55043,101379
Mustafakemalpaşa,40.03815,28.40866,101412
Argenteuil,48.95,2.25,101475
Kansk,56.20167,95.7175,101502
Malambo,10.85953,-74.77386,101534
Temapache,21.06611,-97.64207,101558
Székesfehérvár,47.18995,18.41034,101600
Salihorsk,52.7876,27.5415,101614
Dera Ismāīl Khān,31.83269,70.9024,101616
‘Ibrī,23.22573,56.51572,101640
Aurangabad,19.87757,75.34226,1016441
Pārsābād,39.6482,47.9174,101661
Delta,49.14399,-122.9068,101668
Bontang,0.1324,117.4854,101691
Ternate,0.79065,127.38424,101731
Hidalgo del Parral,26.92961,-105.6662,101768
Erie,42.12922,-80.08506,101786
Torrevieja,37.97872,-0.68222,101792
Gondal,21.96074,70.80255,101801
Singkawang,0.90925,108.98463,101838
Brussels,50.85045,4.34878,1019022
Pulong Santa Cruz,14.27324,121.07643,101914
Bethal,-26.45794,29.46553,101919
Calgary,51.05011,-114.08529,1019942
Brateyevo,55.63755,37.76438,102000
Shchukino,55.8,37.45,102000
Disūq,31.13305,30.64649,102037
Şabrātah,32.79335,12.48845,102038
Laoag,18.1978,120.5957,102105
Inazawa,35.25,136.78333,102130
Fīrozpur,30.92574,74.61311,102130
Ukhta,63.56705,53.68348,102187
Birigui,-21.28861,-50.34,102277
Artëm,43.3595,132.18887,102300
Qianzhou,28.31925,109.73346,102332
Marmagao,15.40927,73.78869,102345
Drobeta-Turnu Severin,44.63194,22.65611,102346
Antioch,38.00492,-121.80579,102372
Tulancingo,20.08363,-98.36332,102383
Bemowo,52.2546,20.90844,102393
Dublin,53.33306,-6.24889,1024027
Shāhzādpur,24.17687,89.5988,102420
Concepción de La Vega,19.22207,-70.52956,102426
Flint,43.01253,-83.68746,102434
Curicó,-34.98279,-71.23943,102438
Wazīrābād,32.44583,74.11594,102444
Dhaulpur,26.69286,77.87968,102462
Donetsk,48.023,37.80224,1024700
Sagh,9.1429,18.3923,102528
Lubango,-14.91717,13.4925,102541
Edison,40.51872,-74.4121,102548
St Helens,53.45,-2.73333,102555
Chelmsford,51.73575,0.46958,102671
Erlangen,49.59099,11.00783,102675
Piatra Neamţ,46.91667,26.33333,102688
Roxas City,11.58528,122.75111,102688
Belawan,3.7755,98.6832,102707
Huainan,32.62639,116.99694,1027655
Hāora,22.57688,88.31857,1027672
Lafiagi,8.85299,5.41641,102779
Khushāb,32.29667,72.3525,102793
Pushkino,56.01722,37.86667,102816
Palma Soriano,20.21238,-75.99843,102826
Portmore,17.95032,-76.88215,102861
Al Qurayyāt,31.33176,37.34282,102903
Ciudad Delicias,28.19013,-105.47012,102969
Bogorodskoye,55.81353,37.71617,103000
Oleksandriya,48.66961,33.11593,103000
Rantauprapat,2.1,99.83333,103009
Jabalpur,23.16697,79.95006,1030168
Everett,47.97898,-122.20208,103019
Hildesheim,52.15077,9.95112,103052
Ikere-Ekiti,7.49748,5.23041,103054
Begusarai,25.41853,86.13389,103060
Ghāzīpur,25.58052,83.58058,103095
Kashipur,29.21399,78.95693,103138
Velikiye Luki,56.34,30.54517,103149
Campinas,-22.90556,-47.06083,1031554
Escuintla,14.305,-90.785,103165
Palm Bay,28.03446,-80.58866,103190
Seongnam-si,37.43861,127.13778,1031935
Esmeraldas,-19.7625,-44.31389,103206
Cheltenham,51.9,-2.08333,103249
Dnipropetrovsk,48.45,34.98333,1032822
Turgutlu,38.49533,27.6997,103292
Akademicheskoe,60.01375,30.39471,103304
Vĩnh Long,10.25369,105.9722,103314
Ufa,54.74306,55.96779,1033338
Nishio,34.86667,137.05,103337
Burbank,34.18084,-118.30897,103340
Queluz,38.75657,-9.25451,103399
Isehara,35.39056,139.30778,103401
Las Margaritas,16.31265,-91.98107,103403
Xianyang,34.33778,108.70261,1034081
Phitsanulok,16.82481,100.25858,103427
Heroica Guaymas,27.91928,-110.89755,103449
Murrieta,33.55391,-117.21392,103466
Prabumulih,-3.43447,104.23056,103470
Teni,10.01531,77.482,1034724
Brandon,27.9378,-82.28592,103483
Seoul,37.566,126.9784,10349312
Nagda,23.45834,75.41759,103501
Chūru,28.30415,74.96718,103533
Dhaka,23.7104,90.40744,10356500
Shenzhen,22.54554,114.0683,10358381
Bilqās,31.21452,31.35798,103596
Zhanaozen,43.34116,52.86192,103598
Gardēz,33.59744,69.22592,103601
Tantoyuca,21.35064,-98.2257,103610
Male,4.1748,73.50888,103693
Richmond,37.93576,-122.34775,103701
West Jordan,40.60967,-111.9391,103712
Hosūr,12.73647,77.83264,103724
Nkpor,6.15164,6.84459,103733
Marzahn,52.54525,13.56983,103768
Moscow,55.75222,37.61556,10381222
Yuxi,24.355,102.54222,103829
Bagaha,27.09918,84.09003,103855
Dolisie,-4.19834,12.66664,103894
Roorkee,29.86313,77.89126,103894
Woking,51.31903,-0.55893,103932
Ed Damer,17.59278,33.95917,103941
Jishu,44.31667,126.8,103988
Kroonstad,-27.65036,27.23488,103992
Soyībug,34.08049,74.70871,104000
Izmaylovo,55.78677,37.80165,104000
Kiselëvsk,53.99,86.6621,104000
Iwakuni,34.16297,132.22,104004
Abengourou,6.72972,-3.49639,104020
Matamoros,25.52699,-103.2285,104024
Green Bay,44.51916,-88.01983,104057
Taichung,24.1469,120.6839,1040725
Yenakiyeve,48.23331,38.21137,104101
Wuchuan,21.45713,110.76591,104168
Billings,45.78329,-108.50069,104170
Kara,9.55111,1.18611,104207
Bishoftu,8.75225,38.97846,104215
Kot Addu,30.4692,70.96714,104217
Pulandian,39.39528,121.96694,104277
Lo Prado,-33.4443,-70.72552,104316
Tandil,-37.32167,-59.13316,104325
Yatsushiro,32.5045,130.60066,104341
Zhezqazghan,47.78333,67.76667,104357
High Point,35.95569,-80.00532,104371
Manila,14.6042,120.9822,10444527
Mostar,43.34333,17.80806,104518
Depok,-7.7625,110.43167,104527
Wichita Falls,33.91371,-98.49339,104553
Al Fāw,29.97421,48.47309,104569
Badlapur,19.15516,73.26553,104636
Gera,50.88029,12.08187,104659
Jena,50.92878,11.5899,104712
Douliu,23.70944,120.54333,104723
Changshu City,31.64615,120.74221,1047700
Oldham,53.54051,-2.1183,104782
Bāneh,35.9975,45.8853,104799
Daxing,39.74025,116.32693,104904
Moratalaz,40.41667,-3.65,104923
Tbilisi,41.69411,44.83368,1049498
Malinovka,53.8579,27.4374,105000
Universal City,34.1389,-118.35341,105000
Barnāla,30.37205,75.54537,105016
Araguaína,-7.19111,-48.20722,105019
Linhares,-19.39111,-40.07222,105075
Hagåtña,13.47567,144.74886,1051
Focşani,45.7,27.18333,105112
Cambridge,42.3751,-71.10561,105162
Jizan,16.88917,42.55111,105198
Yevpatoriya,45.20091,33.36655,105223
Thành Phố Hòa Bình,20.81717,105.33759,105260
Datong,40.09361,113.29139,1052678
Queenstown,-31.89756,26.87533,105309
Fairfield,38.24936,-122.03997,105321
Carlsbad,33.15809,-117.35059,105328
Nancy,48.68439,6.18496,105334
Baraki,36.66655,3.09606,105402
Tengzhou,35.07706,117.15176,105456
Bhairab Bāzār,24.0524,90.9764,105457
Mariara,10.29644,-67.71813,105486
Fresnillo,23.18126,-102.87136,105488
Tanza,14.6753,120.9389,105510
Ponnāni,10.76695,75.92523,105512
Fargo,46.87719,-96.7898,105549
Norwalk,33.90224,-118.08173,105549
Gresham,45.49818,-122.43148,105594
Idkū,31.30782,30.29901,105599
Lahad Datu,5.0268,118.327,105622
Anqiu,36.43417,119.1925,105665
Nantou,23.91566,120.66387,105682
Azare,11.6765,10.1948,105687
Aïn Beïda,35.79639,7.39278,105765
Suceava,47.63333,26.25,105796
Arjawinangun,-6.64528,108.41028,105845
Guaratinguetá,-22.81639,-45.1925,105880
Mati,6.95508,126.21655,105908
Khurja,28.25436,77.85436,105909
Xinghua,32.93917,119.83417,105918
Derbent,42.06779,48.28987,105965
Sydney,46.1351,-60.1831,105968
Ashqelon,31.66926,34.57149,105995
Legnica,51.21006,16.1619,106033
West Covina,34.06862,-117.93895,106098
Santa Cruz do Sul,-29.7175,-52.42583,106113
Westminster,39.83665,-105.0372,106114
Launceston,-41.43876,147.13467,106153
Blackburn,53.75,-2.48333,106154
Bergisch Gladbach,50.9856,7.13298,106184
Novotroitsk,51.20301,58.32665,106186
Gangāwati,15.43342,76.5293,106250
Namur,50.4669,4.86746,106284
Chelyabinsk,55.15402,61.42915,1062919
Sendai-shi,38.26889,140.87195,1063103
Sendai,38.25759,140.8667,1063103
Visakhapatnam,17.68009,83.20161,1063178
Pindiga,9.98333,10.93333,106322
Buhe,30.28757,112.22979,106347
Hwado,37.6525,127.3075,106358
Longjiang,47.33072,123.17816,106384
Arvada,39.80276,-105.08748,106433
Wilmington,34.22573,-77.94471,106476
Cikarang,-6.26111,107.15278,106479
Lowell,42.63342,-71.31617,106519
Coimbra,40.20564,-8.41955,106582
Pueblo,38.25445,-104.60914,106595
Fukayachō,36.2,139.28333,106595
Gaziantep,37.05944,37.3825,1065975
Chittaurgarh,24.88963,74.62403,106710
Rayong,12.68095,101.25798,106737
Rochester,44.02163,-92.4699,106769
Lianran,24.92271,102.48496,106795
Mariehamn,60.09726,19.93481,10682
Catia La Mar,10.60383,-67.03034,106822
Al Ḩawāmidīyah,29.9,31.25,106841
Ejido,8.54665,-71.24087,106915
Taungoo,18.94291,96.43408,106945
Elista,46.30778,44.25583,106971
Khemisset,33.82404,-6.06627,106991
Sutton Coldfield,52.56667,-1.81667,107030
Mitrovicë,42.88333,20.86667,107045
Crawley,51.11303,-0.18312,107061
Yên Vinh,18.66667,105.66667,107082
Apucarana,-23.55083,-51.46083,107085
Ilebo,-4.33111,20.58638,107093
Iida,35.51965,137.82074,107111
Reus,41.15612,1.10687,107118
Vicenza,45.54672,11.5475,107129
As Suwayq,23.84944,57.43861,107143
Bharatpur,27.68333,84.43333,107157
Miami Gardens,25.94204,-80.2456,107167
Västerås,59.61617,16.55276,107194
Siegen,50.87481,8.02431,107242
Goyang-si,37.65639,126.835,1073069
Koblenz,50.35357,7.57883,107319
Allahābād,25.44894,81.83329,1073438
Shinyanga,-3.66393,33.42118,107362
Vitória de Santo Antão,-8.11806,-35.29139,107383
Obninsk,55.09681,36.61006,107392
Sherpur,25.01881,90.01751,107419
Poá,-23.52806,-46.34472,107432
Rostov-na-Donu,47.23135,39.72328,1074482
Koszalin,54.19438,16.17222,107450
Araras,-22.35694,-47.38417,107463
Alcobendas,40.54746,-3.64197,107514
Râmnicu Vâlcea,45.1,24.36667,107558
Shaping,22.77019,112.95776,107589
Butterworth,5.3991,100.36382,107591
Umm Qaşr,30.0362,47.91951,107620
Bandırma,40.35222,27.97667,107631
Clearwater,27.96585,-82.8001,107685
Ji Paraná,-10.88528,-61.95167,107697
Ourense,42.33669,-7.86407,107742
Yono,35.88333,139.63333,1077730
Moers,51.45342,6.6326,107816
Tajimi,35.31667,137.13333,107818
Jalai Nur,49.45,117.7,107828
Jalpāiguri,26.51667,88.73333,107832
Thành phố Bạc Liêu,9.29414,105.72776,107911
Jiangyin,31.91102,120.26302,107918
Atbara,17.70217,33.98638,107930
Kunshan,31.37762,120.95431,107986
An Nuhūd,12.7,28.43333,108008
Rockingham,-32.27682,115.72978,108022
Santa Cruz,14.2814,121.4161,108145
Pingliang,35.53917,106.68611,108156
Birnin Kebbi,12.45389,4.1975,108164
Banyuwangi,-8.2325,114.35755,108166
Tādepallegūdem,16.81304,81.52874,108167
Elgin,42.03725,-88.28119,108188
Oktyabr’skiy,54.48147,53.47103,108200
Cabo Frio,-22.88717,-42.02622,108239
Kyzyl,51.71472,94.45338,108240
Nehe,48.48333,124.83333,108253
Al Sohar,24.3643,56.74681,108274
Dagenham,51.55,0.16667,108368
Santiago,16.68808,121.5487,108414
Trincomalee,8.5711,81.2335,108420
Baghlān,36.13068,68.70829,108449
Mopti,14.4843,-4.18296,108456
Girón,7.0682,-73.16981,108466
Bānsbāria,22.95387,88.40098,108474
Enterprise,36.02525,-115.24194,108481
Columbia,38.95171,-92.33407,108500
Katumba,-9.23333,33.61667,108558
Madanapalle,13.5503,78.50288,108593
Dharān Bāzār,26.81248,87.28355,108600
Uromi,6.7,6.33333,108608
Sawāi Mādhopur,26.02301,76.34408,108612
Ouagadougou,12.36566,-1.53388,1086505
Pemba,-12.97395,40.51775,108737
Ksar el Kebir,35.00174,-5.90534,108753
Murfreesboro,35.84562,-86.39027,108755
Kalisz,51.76109,18.09102,108759
Boulogne-Billancourt,48.83333,2.25,108782
Dehui,44.53333,125.7,108818
Iwatsuki,35.95225,139.68502,108833
Franco da Rocha,-23.32167,-46.72694,108858
Zhongxiang,31.16611,112.58306,108883
Leninsk-Kuznetsky,54.6567,86.1737,109023
Komatsu,36.40263,136.45088,109045
Matagalpa,12.92559,-85.91747,109089
Hulan,45.98333,126.6,109104
San Rafael,-34.61772,-68.33007,109163
Port-Gentil,-0.71933,8.78151,109163
Livingstone,-17.84194,25.85425,109203
Tumbes,-3.56694,-80.45153,109223
Amritsar,31.63661,74.87476,1092450
Sergiyev Posad,56.3,38.13333,109252
Ijebu-Igbo,6.97198,3.99938,109261
Delhi,28.65381,77.22897,10927986
Larache,35.19321,-6.15572,109294
Yerevan,40.18111,44.51361,1093485
Hoshangābād,22.75357,77.72249,109358
Zhaotong,27.31667,103.71667,109400
Colchester,51.88921,0.90421,109414
Heihe,50.24413,127.49016,109427
Phalaborwa,-23.94299,31.14107,109468
Arzamas,55.39485,43.83992,109479
Ciudad Valles,21.98333,-99.01667,109504
Dongxing,45.36088,130.78679,109561
Manchester,42.99564,-71.45479,109565
Taitung City,22.7583,121.1444,109584
Catanduva,-21.13778,-48.97278,109612
Tieli,46.98043,128.04497,109636
Araruama,-22.87278,-42.34306,109637
Inglewood,33.96168,-118.35313,109673
Kandi,11.13417,2.93861,109701
Shilong,23.11444,113.84722,109733
Lichinga,-13.31278,35.24056,109839
Seversk,56.60056,84.88639,109844
Kecskemét,46.90618,19.69128,109847
Ambur,12.79163,78.71644,109873
Hailun,47.4565,126.95368,109881
Linshui,36.42472,114.20472,109955
Costa Mesa,33.64113,-117.91867,109960
Bataysk,47.13975,39.75181,109962
Mizhou,35.99472,119.3975,109968
Zliten,32.46739,14.56874,109972
Mendip,51.2372,-2.6266,110000
Ressano Garcia,-25.44278,31.99528,110000
Kufa,32.05114,44.44017,110000
Vacoas,-20.29806,57.47833,110000
Noyabrsk,63.19309,75.43728,110000
Qingnian,36.84032,115.71183,110046
Gabès,33.88146,10.0982,110075
Garanhuns,-8.88202,-36.50216,110085
Citeureup,-6.48556,106.88194,110155
Nelspruit,-25.47448,30.97033,110159
Bender,46.83156,29.47769,110175
Kresek,-6.13139,106.37972,110182
Kiryū,36.4,139.33333,110219
Tauranga,-37.68611,176.16667,110338
Waterbury,41.55815,-73.0515,110366
Sultānpur,26.25996,82.07314,110368
Kazan,55.78874,49.12214,1104738
Delicias,41.64928,-0.90757,110520
Manzini,-26.49884,31.38004,110537
Yenangyaung,20.46504,94.8712,110553
Caen,49.18585,-0.35912,110624
East Independence,39.09556,-94.35523,110675
Perpignan,42.69764,2.89541,110706
Guangzhou,23.11667,113.25,11071424
Zhuji,29.71877,120.24233,110721
Manzanillo,19.11695,-104.34214,110735
Hadejia,12.45347,10.04115,110753
Bandar-e Anzalī,37.47257,49.4593,110826
Turhal,40.3875,36.08111,110884
Tianjin,39.14222,117.17667,11090314
Encheng,22.18659,112.30424,110921
Hikone,35.25,136.25,110925
Norman,35.22257,-97.43948,110925
Várzea Paulista,-23.21139,-46.82833,110936
Atibaia,-23.11694,-46.55028,110968
Bārsi,18.23454,75.69275,110983
Dongtai,32.85231,120.30947,110988
Nguru,12.87695,10.45536,111014
Nsukka,6.85783,7.39577,111017
Navadwīp,23.4067,88.36861,111123
Midland,31.99735,-102.07791,111147
Maiduguri,11.84692,13.15712,1112449
Achalpur,21.25722,77.50861,111278
Ciutat Vella,41.38022,2.17319,111290
Araucária,-25.59306,-49.41028,111302
Mbouda,5.62611,10.25421,111320
Santa Rosa,-36.61667,-64.28333,111424
Mulhouse,47.75,7.33333,111430
Magelang,-7.47056,110.21778,111461
León,21.13052,-101.671,1114626
Ashoknagar Kalyangarh,22.86416,88.63701,111475
Cileunyi,-6.93889,107.75278,111476
Masjed Soleymān,31.9364,49.3039,111510
Resende,-22.46889,-44.44667,111514
Daugavpils,55.88333,26.53333,111564
Chhatarpur,24.91422,79.58781,111594
Conselheiro Lafaiete,-20.66028,-43.78611,111596
Lysychans’k,48.90485,38.44207,111600
Baku,40.37767,49.89201,1116513
Bangaon,23.04553,88.83084,111693
Kandy,7.2955,80.6356,111701
Suriāpet,17.14054,79.62045,111729
İstanbul,41.01384,28.94966,11174257
Qūchān,37.106,58.50955,111752
Downey,33.94001,-118.13257,111772
Novokuybyshevsk,53.0959,49.9462,111800
Zwolle,52.5125,6.09444,111805
Iringa,-7.76667,35.7,111820
Douma,33.57175,36.4027,111864
Ribeirão Pires,-23.71056,-46.41333,111888
Cà Mau,9.17682,105.15242,111894
Beibei,29.82739,106.43645,112019
Fürth,49.47593,10.98856,112025
Esuk Oron,4.80293,8.25341,112033
Port Blair,11.66667,92.75,112050
Rewāri,28.199,76.6183,112079
Carúpano,10.66781,-63.25849,112082
Iguala de la Independencia,18.34928,-99.53936,112106
Pudukkottai,10.38128,78.82141,112118
Mazyr,52.0495,29.2456,112137
Chās,23.63556,86.16712,112141
Motīhāri,26.65738,84.91922,112144
Apopa,13.80722,-89.17917,112158
Farīdpur,23.60612,89.84064,112187
Malingao,7.16083,124.475,1121974
Guanare,9.04183,-69.74206,112286
Monterrey,25.67507,-100.31847,1122874
Kamālia,30.73333,72.65,112426
Kaiyuan,42.53306,124.04028,112462
Innsbruck,47.26266,11.39454,112467
Thanh Hóa,19.8,105.76667,112473
Provo,40.23384,-111.65853,112488
Satu Mare,47.8,22.88333,112490
Benin City,6.33815,5.62575,1125058
Mojokerto,-7.4664,112.4338,112557
Berkeley,37.87159,-122.27275,112580
Shaowu,27.34089,117.4831,112585
Reutlingen,48.49144,9.20427,112627
Nefteyugansk,61.09979,72.60349,112632
Chandausi,28.45302,78.78295,112635
Haikou,24.77985,102.57548,112644
Rouen,49.44313,1.09932,112787
Sātāra,17.68589,73.99333,112793
Guangming,45.33333,122.78333,112819
Vihāri,30.03333,72.35,112840
Eastbourne,50.76871,0.28453,112906
Omsk,54.99244,73.36859,1129281
Guanabacoa,23.12389,-82.30028,112964
Alanya,36.54375,31.99982,112969
Shchelkovo,55.92497,37.97218,113000
North Peoria,40.71754,-89.58426,113004
Exeter,50.7236,-3.52751,113118
Kitami,43.80306,143.89083,113137
Jhunjhunūn,28.12559,75.39797,113193
Praia,14.93152,-23.51254,113364
Luanshya,-13.13667,28.41661,113365
Denton,33.21484,-97.13307,113383
Chorzów,50.30582,18.9742,113430
Samara,53.20007,50.15,1134730
El Monte,34.06862,-118.02757,113475
Mishima,35.11667,138.91667,113479
Nippes,50.96545,6.95314,113487
Budapest XIII. kerület,47.52978,19.08068,113531
Dumaguete,9.30722,123.30261,113541
Jandira,-23.5275,-46.9025,113605
Maba,24.68413,113.59839,113609
Qianguo,45.11711,124.85676,113611
Cuito,-12.38333,16.93333,113624
Pingshan,22.99376,114.71311,113631
Dubai,25.0657,55.17128,1137347
Wardha,20.73807,78.59671,113759
Lijiang,26.86879,100.22072,1137600
Tobol’sk,58.19807,68.25457,113800
Offa,8.14911,4.72074,113830
Māler Kotla,30.5309,75.87949,113840
Botucatu,-22.88583,-48.445,113862
Laghouat,33.8,2.86514,113872
Ann Arbor,42.27756,-83.74088,113934
Ochakovo-Matveyevskoye,55.68432,37.44654,114000
Villa Lugano,-34.67907,-58.47263,114000
Hotan,37.1075,79.93548,114000
Kankan,10.38542,-9.30568,114009
Erzincan,39.73919,39.49015,114027
Siirt,37.93262,41.94025,114034
Dharmavaram,14.41494,77.71995,114050
Sawangan,-6.40278,106.77444,114069
Bergamo,45.69601,9.66721,114162
Yuyao,30.05,121.14944,114177
Kingston,44.22976,-76.48098,114195
Pleiku,13.98333,108,114225
Pamanukan,-6.28417,107.81056,114290
Lansing,42.73253,-84.55553,114297
Balasore,21.49266,86.93348,114321
Dunedin,-45.87416,170.50361,114347
Hiroshima-shi,34.39627,132.45937,1143841
Sóc Trăng,9.59995,105.97193,114453
Coquitlam,49.28297,-122.75262,114565
Mary,37.59378,61.83031,114680
Basse-Terre,15.99854,-61.72548,11472
Botoşani,47.75,26.66667,114783
Mingshui,36.71667,117.5,114858
Port Harcourt,4.77742,7.0134,1148665
Balkh,36.75635,66.8972,114883
Pago Pago,-14.27806,-170.7025,11500
Peoria,40.69365,-89.58899,115007
Tripoli,32.87519,13.18746,1150989
Tuguegarao City,17.61306,121.72694,115105
Basti,26.79446,82.73285,115115
Pouso Alegre,-22.23,-45.93639,115201
Sofia,42.69751,23.32415,1152556
Bizerte,37.27442,9.87391,115268
Toliara,-23.35,43.66667,115319
Copenhagen,55.67594,12.56553,1153615
Tianfu,37.19723,122.05228,115370
Texcoco de Mora,19.51194,-98.88293,115378
Lengshuijiang,27.68806,111.42944,115399
Okigwi,5.83523,7.35989,115499
Baidyabāti,22.78498,88.32586,115504
Novo-Peredelkino,55.64528,37.33583,115536
Batang,-6.4846,110.7083,115537
Parla,40.23604,-3.76752,115611
Yelets,52.62366,38.50169,115688
Guelph,43.54594,-80.25599,115760
Sri Jayewardenepura Kotte,6.88297,79.90708,115826
Zoetermeer,52.0575,4.49306,115845
Binzhou,37.36667,118.01667,115893
Milpa Alta,19.19251,-99.02317,115895
Victorville,34.53611,-117.29116,115903
Cavite City,14.48369,120.89878,115932
Pavlohrad,48.53426,35.87098,115932
Vallejo,38.10409,-122.25664,115942
Ras al-Khaimah,25.78953,55.9432,115949
Schöneberg,52.46667,13.35,115976
Noginsk,55.86647,38.4438,115979
Taganskiy,55.73333,37.66667,116000
Alchevs’k,48.46893,38.81669,116000
Sinop,-11.86417,-55.5025,116013
Handa,34.88333,136.93333,116119
Digos,6.74972,125.35722,116122
Gudivāda,16.43171,80.9963,116161
Algeciras,36.13326,-5.45051,116209
Cherkessk,44.22333,42.05778,116224
Karachi,24.9056,67.0822,11624219
Springfield,39.80172,-89.64371,116250
Yakeshi,49.28333,120.73333,116284
Berlin Schöneberg,52.48388,13.3477,116286
Nyíregyháza,47.95539,21.71671,116298
Dasha,23.11037,113.4418,116307
Varanasi,25.31668,83.01041,1164404
Yelahanka,13.10129,77.59626,116447
Santa Clara,37.35411,-121.95524,116468
Moncloa-Aravaca,40.43547,-3.7317,116531
Puno,-15.8422,-70.0199,116552
Jaén,37.76922,-3.79028,116557
Taldykorgan,45.01556,78.37389,116558
Prague,50.08804,14.42076,1165581
Varginha,-21.55139,-45.43028,116571
Ahmadpur East,29.14309,71.25976,116579
Pescara,42.4584,14.20283,116596
Āzamgarh,26.06758,83.18364,116644
Simões Filho,-12.78444,-38.40389,116662
Brugge,51.20892,3.22424,116709
Athens,33.96095,-83.37794,116714
Lausanne,46.516,6.63282,116751
Ordu,40.98472,37.87889,116788
Independence,39.09112,-94.41551,116830
Hōfu,34.05,131.56667,116925
Guarulhos,-23.46278,-46.53333,1169577
Frisco,33.15067,-96.82361,116989
Khenchela,35.43583,7.14333,117000
Pinhais,-25.44472,-49.1925,117000
Rishra,22.72394,88.34563,117014
Botād,22.16917,71.66671,117053
Qingzhou,36.69667,118.47972,117056
Kindia,10.05692,-12.86576,117062
Abilene,32.44874,-99.73314,117063
Nkongsamba,4.9547,9.9404,117063
Čačak,43.89139,20.34972,117072
Setúbal,38.5244,-8.8882,117110
Remscheid,51.17983,7.1925,117118
Goiânia,-16.67861,-49.25389,1171195
Calabozo,8.92416,-67.42929,117132
Khanna,30.703,76.22106,117137
Guiyang,26.58333,106.71667,1171633
Beijing,39.9075,116.39723,11716620
Longjing,42.77139,129.42333,117185
Ishinomaki,38.41667,141.3,117233
Kedungwuni,-6.97038,109.64794,117249
Pyin Oo Lwin,22.03501,96.45683,117303
Newport,51.58774,-2.99835,117326
Rosario,-32.94682,-60.63932,1173533
Panevėžys,55.73333,24.35,117395
Evansville,37.97476,-87.55585,117429
Punta Arenas,-53.15483,-70.91129,117430
Bremerhaven,53.55021,8.57673,117446
Tunja,5.53528,-73.36778,117479
Tigwav,18.42939,-72.86297,117504
Surprise,33.63059,-112.33322,117517
Tebingtinggi,3.3285,99.1625,117530
Anaco,9.43889,-64.47278,117596
Ciudad de Villa de Álvarez,19.26722,-103.73778,117600
Ikoma,34.68333,135.7,117601
Rotherham,53.43012,-1.35678,117618
Shunyi,40.12175,116.64783,117623
Achinsk,56.2694,90.4993,117634
Gemena,3.25651,19.77234,117639
Rājkot,22.29161,70.79322,1177362
Jalingo,8.88333,11.36667,117757
Loja,-3.99313,-79.20422,117796
Tarnów,50.01381,20.98698,117799
Sokodé,8.98333,1.13333,117811
Friedrichshain,52.51559,13.45482,117829
Pātan,23.8507,72.12963,117863
Uzhhorod,48.61667,22.3,117878
Nakhon Pathom,13.8196,100.04427,117927
Fuzhou,26.06139,119.30611,1179720
Troparëvo,55.65625,37.48496,118000
Buga,3.90089,-76.29783,118004
Morbi,22.81731,70.8377,118022
Puning,23.31072,116.16869,118023
Allentown,40.60843,-75.49018,118032
Jetpur,21.75482,70.62347,118068
Ilobu,7.84036,4.48557,118089
Bama,11.52147,13.68826,118121
Torrejón de Ardoz,40.45535,-3.46973,118162
San Juan del Río,20.3878,-99.99605,118173
Pita Kotte,6.8905,79.9015,118179
Bandundu,-3.31687,17.38063,118211
Uppal Kalan,17.40577,78.55911,118259
Malindi,-3.21799,40.11692,118265
Berdyans’k,46.76644,36.79872,118284
Beaumont,30.08605,-94.10185,118296
Srīkākulam,18.29692,83.89732,118299
Maseru,-29.31667,27.48333,118355
Cubatão,-23.895,-46.42528,118410
Zielona Góra,51.93548,15.50643,118433
Sepatan,-6.11889,106.575,118439
Ādilābād,19.67203,78.5359,118526
Khlong Luang,14.06467,100.64578,118551
Zacatecas,22.76843,-102.58141,118562
Gustavo A. Madero,22.8694,-98.75886,1185772
Rimini,44.05755,12.56528,118673
Pleven,43.41667,24.61667,118675
Kokubunji,35.70222,139.47556,118682
Aïn Oussera,35.45139,2.90583,118687
Lhasa,29.65,91.1,118721
Shimotoda,35.81251,139.6856,118731
Thornton,39.86804,-104.97192,118772
Damoh,23.83653,79.44134,118776
Roseville,38.75212,-121.28801,118788
San Jose,12.35275,121.06761,118807
Reykjavík,64.13548,-21.89541,118918
Cagua,10.18634,-67.45935,119033
Settat,33.00103,-7.61662,119082
Carrollton,32.95373,-96.89028,119097
Maputo,-25.96553,32.58322,1191613
Siwān,26.22152,84.35879,119181
Offenbach,50.10061,8.76647,119192
Jaú,-22.29639,-48.55778,119206
Dordrecht,51.81,4.67361,119260
Dombivli,19.21667,73.08333,1193000
Toledo,-24.71361,-53.74306,119313
Pforzheim,48.88436,8.69892,119313
Gustavo A. Madero,19.49016,-99.10978,1193161
Lira,2.2499,32.89985,119323
Saitama,35.90807,139.65657,1193350
Nazilli,37.91631,28.32225,119370
Quevedo,-1.02863,-79.46352,119436
Silang,14.21567,120.97137,119475
Modakeke,7.38333,4.26667,119529
Monza,45.58005,9.27246,119618
Bergedorf,53.48462,10.22904,119665
Trois-Rivières,46.34515,-72.5477,119693
Leiden,52.15833,4.49306,119713
Santa Coloma de Gramenet,41.45152,2.2081,119717
Dallas,32.78306,-96.80667,1197816
Jarānwāla,31.33333,73.43333,119785
Kairouan,35.6781,10.09633,119794
Depok,-6.4,106.81861,1198129
Charlottenburg,52.51667,13.28333,119857
Maxixe,-23.85972,35.34722,119868
Santa Rita,-7.11389,-34.97806,119893
Bottrop,51.52392,6.9285,119909
Ghāziābād,28.66249,77.43777,1199191
Tongshan,34.18045,117.15707,1199193
Anshan,41.12361,122.99,1199275
West Island,-12.15681,96.82251,120
Mata-Utu,-13.28163,-176.17453,1200
Bangil,-7.59939,112.8186,120000
Abbottābād,34.14685,73.21449,120000
Nabatîyé et Tahta,33.37889,35.48389,120000
Solntsevo,55.63711,37.38115,120000
Orekhovo-Zuyevo,55.80672,38.96178,120000
Novoye Medvezhino,53.88333,27.45,120000
Navojoa,27.07015,-109.44391,120000
Midoun,33.80813,10.99228,120000
Santiago de los Caballeros,19.4517,-70.69703,1200000
Omdurman,15.64453,32.47773,1200000
Yueyang,29.37455,113.09481,1200000
Charleston,32.77657,-79.93092,120083
Gràcia,41.40237,2.15641,120087
Gangāpur,26.47249,76.71744,120115
Perugia,43.1122,12.38878,120137
Budapest XIV. kerület,47.5183,19.10789,120148
Fernando de la Mora,-25.3386,-57.52167,120167
Włocławek,52.64817,19.0678,120339
Cambridge,43.3601,-80.31269,120372
Karaman,37.18111,33.215,120399
Rawang,3.3213,101.5767,120447
Ulm,48.39841,9.99155,120451
Mufulira,-12.54982,28.24071,120500
Fengcheng,40.45361,124.07167,120514
Toyokawa,34.81667,137.4,120537
Lafayette,30.22409,-92.01984,120623
Ingolstadt,48.76508,11.42372,120658
Heilbronn,49.13995,9.22054,120733
Mandalay,21.97473,96.08359,1208099
Nakhon Si Thammarat,8.43333,99.96667,120836
Guntakal,15.17126,77.36565,120964
Xilin Hot,43.96667,116.03333,120965
Zyuzino,55.65608,37.56846,121000
Tobruk,32.08361,23.97639,121052
Yaizu,34.86877,138.31952,121057
Cachoeirinha,-29.95111,-51.09389,121084
Coral Springs,26.27119,-80.2706,121096
Musoma,-1.5,33.8,121119
Olmaliq,40.84472,69.59833,121207
North Stamford,41.13815,-73.54346,121230
Davao,7.07306,125.61278,1212504
Raigarh,21.9,83.4,121278
Orizaba,18.85101,-97.10084,121348
Lianhe,47.13333,129.27426,121367
Braga,41.55032,-8.42005,121394
Noda,35.94111,139.85806,121411
San Juan,14.6,121.0333,121430
Ekibastuz,51.72371,75.32287,121470
Naucalpan de Juárez,19.39694,-99.27667,121470
Chikmagalūr,13.32231,75.774,121484
Fujinomiya,35.21667,138.61667,121515
Payakumbuh,-0.2159,100.6334,121572
Stavanger,58.97005,5.73332,121610
Vejalpur,22.69021,73.56299,121610
Bern,46.94809,7.44744,121631
Bhadreswar,22.82449,88.33841,121662
Mataró,41.54211,2.4445,121722
Batumi,41.64228,41.63392,121806
Nalgonda,17.05439,79.26707,121826
Peshawar,34.008,71.57849,1218773
Nobeoka,32.58333,131.66667,121949
Palwal,28.14327,77.32698,121965
Zābol,31.0306,61.4949,121989
Veshnyaki,55.72393,37.81952,122000
Presnenskiy,55.75,37.55,122000
San Pedro Garza Garcia,25.65716,-100.40268,122009
Farīdābād,28.41252,77.31977,1220229
Durrës,41.32306,19.44139,122034
Miramar,25.98731,-80.23227,122041
Concord,37.97798,-122.03107,122067
Nowrangapur,19.23114,82.54826,1220946
Göttingen,51.53443,9.93228,122149
Dibrugarh,27.47989,94.90837,122155
Villa Canales,14.48139,-90.53167,122194
Chishtiān Mandi,29.8,72.86667,122199
Barbacena,-21.22583,-43.77361,122211
Aalborg,57.048,9.9187,122219
Tekirdağ,40.97801,27.50852,122287
Mỹ Tho,10.36004,106.35996,122310
Meerut,28.97155,77.71934,1223184
Bellevue,47.61038,-122.20068,122363
Amherst,42.97839,-78.79976,122366
Maastricht,50.84833,5.68889,122378
Jiayuguan,39.81121,98.28618,122396
Zhoucun,36.81667,117.81667,122402
Xiulin,29.71667,112.4,122411
Palhoça,-27.64528,-48.66778,122423
Recklinghausen,51.61379,7.19738,122438
Beylikdüzü,40.982,28.6399,122452
Brits,-25.63473,27.78022,122497
Virginia,-28.10391,26.86593,122502
Adelaide,-34.92866,138.59863,1225235
Kisarazu,35.37472,139.9225,122524
Ubon Ratchathani,15.23844,104.84866,122533
Puruliya,23.33062,86.36303,122533
Huangzhou,30.45,114.8,122563
Hardoī,27.39433,80.1311,122635
Stamford,41.05343,-73.53873,122643
Az Zubayr,30.39213,47.70175,122676
Alagoinhas,-12.13556,-38.41917,122688
Dam Dam,22.63341,88.42286,122719
Pati,-6.7559,111.038,122785
Mexico City,19.42847,-99.12766,12294193
Dos Hermanas,37.28287,-5.92088,122943
Tsaritsyno,55.6254,37.65032,123000
Minzhu,43.72145,127.33401,123018
Niihama,33.96047,133.30522,123059
Wolfsburg,52.42452,10.7815,123064
Luoyang,23.16244,114.27342,123144
Porto Seguro,-16.44972,-39.06472,123173
Gagnoa,6.13193,-5.9506,123184
Ciudad Nezahualcoyotl,19.40061,-99.01483,1232220
Bordj el Kiffan,36.74871,3.19249,123246
Epworth,-17.89,31.1475,123250
Indramayu,-6.32639,108.32,123263
Pālanpur,24.17097,72.43821,123294
Ban Rangsit,14.02775,100.75603,123382
Port-au-Prince,18.53917,-72.335,1234742
Uruguaiana,-29.75472,-57.08833,123480
Mohali,30.67995,76.72211,123484
Hagonoy,14.83413,120.73271,123531
Guelma,36.46214,7.42608,123590
Lumajang,-8.1335,113.2248,123626
Ciamis,-7.3257,108.3534,123637
Potchefstroom,-26.71667,27.1,123669
Milano,45.46427,9.18951,1236837
Budapest III. kerület,47.54157,19.04501,123723
Thaton,16.91867,97.37001,123727
Polokwane,-23.90449,29.46885,123749
Salvaleón de Higüey,18.61501,-68.70798,123787
Baoshan,46.55861,131.42444,123791
Dārjiling,27.03333,88.26667,123797
Jiupu,41.06667,122.95,123843
Metz,49.11911,6.17269,123914
Teresópolis,-22.4167,-42.97822,123979
Rudnyy,52.9729,63.11677,124000
Rustenburg,-25.66756,27.24208,124064
Laiwu,36.19278,117.65694,124108
Orléans,47.90289,1.90389,124149
Rajapalaiyam,9.45296,77.55335,124168
Marand,38.4329,45.7749,124191
São José dos Pinhais,-25.5302,-49.20836,124224
Simi Valley,34.26945,-118.78148,124237
Lecheng,25.128,113.35041,124268
Suwon-si,37.29111,127.00889,1242724
Targówek,52.29185,21.04845,124316
Agadez,16.97333,7.99111,124324
Gainesville,29.65163,-82.32483,124354
Timon,-5.09417,-42.83667,124427
Gorzów Wielkopolski,52.73679,15.22878,124430
Visalia,36.33023,-119.29206,124442
Kokshetau,53.28245,69.39692,124444
Riobamba,-1.67098,-78.64712,124478
Kashihara-shi,34.50896,135.7929,124521
Khairpur,27.52948,68.7617,124602
Santa Tecla,13.67694,-89.27972,124694
Yushu,44.8,126.53333,124736
San Francisco de Macorís,19.30099,-70.25259,124763
Hartford,41.76371,-72.68509,124775
Sloviansk,48.86667,37.61667,124800
Waco,31.54933,-97.14667,124805
Semnān,35.57691,53.39205,124826
Huixquilucan,19.35985,-99.35016,124846
Gondia,21.46015,80.19203,124897
Adana,37.00167,35.32889,1248988
Zamora,19.9855,-102.28387,124916
Suining,30.50802,105.57332,124924
Padalarang,-6.83778,107.47278,124946
Elizabeth,40.66399,-74.2107,124969
Mandsaur,24.07184,75.06986,124988
Shiraz,29.61031,52.53113,1249942
Tyoply Stan,55.62047,37.49338,125000
Bălţi,47.76314,27.92932,125000
Willemstad,12.1084,-68.93354,125000
Beppu,33.27945,131.49751,125065
Bohicon,7.17826,2.0667,125092
Bragança Paulista,-22.95194,-46.54194,125096
Kelowna,49.88307,-119.48568,125109
Shahecheng,36.93833,114.50583,125132
Ra’s Bayrūt,33.9,35.48333,1251739
Stockholm,59.33258,18.0649,1253309
Orsha,54.5081,30.4172,125347
Haimen,23.19346,116.61219,125427
Los Ángeles,-37.46973,-72.35366,125430
Okinawa,26.33583,127.80139,125483
Koronadal,6.50306,124.84694,125502
Sorong,-0.87956,131.26104,125535
‘Ajlūn,32.33326,35.75279,125557
Tando Ādam,25.76374,68.66098,125598
Torbat-e Ḩeydarīyeh,35.27401,59.21949,125633
Xiazhen,34.80222,117.11167,125667
Watford,51.65531,-0.39602,125707
Salerno,40.67545,14.79328,125797
Les Cayes,18.19331,-73.74601,125799
Navoiy Shahri,40.09294,65.3712,125800
Gashua,12.87412,11.0399,125817
Olathe,38.8814,-94.81913,125872
Huicheng,23.03845,116.28988,125919
Pangkalpinang,-2.12914,106.11377,125933
Munich,48.13743,11.57549,1260391
Retiro,40.41317,-3.68307,126058
Thāne,19.19704,72.96355,1261517
Paseh,-7.1026,107.7641,126181
Kalyān,19.2437,73.13554,1262255
Patos de Minas,-18.57889,-46.51806,126234
Itapetininga,-23.59167,-48.05306,126243
Rafaḩ,31.287,34.25952,126305
Cedar Rapids,42.00833,-91.64407,126326
Macheng,31.18013,115.02213,126366
Lambaré,-25.34682,-57.60647,126377
Al Jadīd,27.05,14.4,126386
Chinandega,12.62937,-87.13105,126387
Lévis,46.80326,-71.17793,126396
Kolār,13.13671,78.12917,126441
Songea,-10.68333,35.65,126449
Anmore,49.31637,-122.85263,126456
Jombang,-7.54595,112.23307,126465
Edirne,41.67719,26.55597,126470
Lalitpur,24.69055,78.41888,126475
East Los Angeles,34.0239,-118.17202,126496
Sogamoso,5.71434,-72.93391,126551
Ueda,36.40265,138.28161,126606
Bahāwalnagar,29.99866,73.2536,126617
Thousand Oaks,34.17056,-118.83759,126683
Bahāwalnagar,30.55083,73.39083,126700
Danshui,22.7984,114.46716,126701
Pākpattan,30.34104,73.38664,126706
Lusaka,-15.40669,28.28713,1267440
Cadiz,36.52978,-6.29465,126766
Xichang,27.89642,102.26341,126787
Villaverde,40.35,-3.7,126802
Neftekamsk,56.092,54.2661,126805
Khasavyurt,43.2509,46.58766,126829
Klaten,-7.70583,110.60639,126831
Hāthras,27.59621,78.05237,126882
Rangkasbitung,-6.3591,106.2494,126910
Mumbai,19.07283,72.88261,12691836
Daska,32.32426,74.34974,126924
Murom,55.575,42.0426,126931
Pakokku,21.33489,95.08438,126938
Angren,41.01667,70.14361,126957
Bettiah,26.8024,84.49873,127008
Cuddapah,14.4775,78.82353,127010
Sancti Spíritus,21.92972,-79.4425,127069
Montevideo,-34.90328,-56.18816,1270737
Isiro,2.77391,27.61603,127076
Tipitapa,12.19732,-86.09706,127153
Surat Thani,9.14011,99.33311,127201
Tando Allāhyār,25.46263,68.71923,127202
Jiangyou,31.76667,104.71667,127225
Colima,19.24997,-103.72714,127235
Lafia,8.4939,8.51532,127236
Amaigbo,5.78917,7.83829,127300
Huaihua,27.54944,109.95917,127322
Belgrade,44.80401,20.46513,1273651
Xai-Xai,-25.05194,33.64417,127366
Budta,7.20417,124.43972,1273715
Wau,7.70286,27.9953,127384
Wałbrzych,50.77141,16.28432,127431
Topeka,39.04833,-95.67804,127473
Płock,52.54682,19.70638,127474
Jequié,-13.85875,-40.08512,127475
Sirājganj,24.45771,89.70802,127481
Saïda,34.83033,0.15171,127497
Elbląg,54.1522,19.40884,127558
Amman,31.95522,35.94503,1275857
Worcester,-33.64651,19.44852,127597
Opole,50.67211,17.92533,127676
Kusatsu,35.01667,135.96667,127680
Uppsala,59.85882,17.63889,127734
San Nicolás de los Arroyos,-33.33578,-60.22523,127742
Titāgarh,22.74252,88.37326,127751
Xuanzhou,30.9525,118.75528,127758
Ungaran,-7.13972,110.405,127812
Divo,5.83739,-5.35723,127867
Muar,2.0442,102.5689,127897
Killeen,31.11712,-97.7278,127921
Orekhovo-Borisovo Severnoye,55.61667,37.68333,128000
Ivanovskoye,55.76667,37.83333,128000
Panvel,18.98878,73.11013,128046
Asaka,35.80472,139.60194,128058
Ramat Gan,32.08227,34.81065,128095
Sirte,31.20892,16.58866,128123
Serpukhov,54.91578,37.41114,128158
Hālīsahar,22.93218,88.41859,128172
Yavatmāl,20.39324,78.13201,128175
Manzanillo,20.34333,-77.11667,128188
Jirjā,26.33826,31.89161,128250
Győr,47.68333,17.63512,128265
Teluknaga,-6.09889,106.63806,128275
Al Manāqil,14.2459,32.9891,128297
Jīma,7.66667,36.83333,128306
Sakākā,29.96974,40.20641,128332
Khardah,22.71861,88.37806,128346
El Eulma,36.15281,5.69016,128351
Nizhniy Novgorod,56.32867,44.00205,1284164
Besançon,47.24878,6.01815,128426
Pimpri,18.62292,73.80696,1284606
Brazzaville,-4.26613,15.28318,1284609
Novocheboksarsk,56.11095,47.47755,128468
Cambridge,52.2,0.11667,128488
Hassan,13.00715,76.0962,128531
Oulu,65.01236,25.46816,128618
Kamyshin,50.09833,45.41601,128626
Gloucester,51.86568,-2.2431,128721
Lárisa,39.63689,22.41761,128758
Sīnah,36.80752,43.03831,128776
Semarang,-6.9932,110.4203,1288084
Idlib,35.93062,36.63393,128840
Arish,31.13159,33.79844,128855
Mogi-Gaucu,-22.3677,-46.94552,128865
Palo Negro,10.17389,-67.54194,128875
Sātkhira,22.70817,89.07185,128918
Nashik,19.99727,73.79096,1289497
Bat Yam,32.02379,34.75185,128979
San Cristóbal de las Casas,16.73176,-92.64126,128996
Zyablikovo,55.61667,37.76667,129000
Cadiz,10.9465,123.288,129053
Darwin,-12.46113,130.84185,129062
Udipi,13.33467,74.74617,129113
Leiyang,26.40238,112.85908,129116
Mino,34.82691,135.47057,129127
Regensburg,49.03451,12.11923,129151
Shahrekord,32.32556,50.86444,129153
Charallave,10.24247,-66.85723,129182
Basseterre,17.29484,-62.7261,12920
Bilbays,30.42039,31.56223,129211
Nador,35.16813,-2.93352,129260
Columbia,34.00071,-81.03481,129272
Palopo,-2.9925,120.19694,129273
Copiapó,-27.36679,-70.3314,129280
Tete,-16.15639,33.58667,129316
Andong,36.56556,128.725,129319
Acilia-Castel Fusano-Ostia Antica,41.76337,12.33078,129362
Ouargla,31.94932,5.32502,129402
Sherbrooke,45.40008,-71.89908,129447
West Valley City,40.69161,-112.00105,129480
Daitōchō,34.71378,135.62033,129521
Deoria,26.50167,83.77936,129570
Bimbo,4.25671,18.41583,129655
Sterling Heights,42.58031,-83.0302,129699
Tokat,40.31389,36.55444,129702
Navoiy,40.08444,65.37917,129725
Bamako,12.65,-8,1297281
Mandi Bahāuddīn,32.58339,73.48431,129733
New Haven,41.30815,-72.92816,129779
Baidoa,3.11383,43.6498,129839
McAllen,26.20341,-98.23001,129877
Gyeongsan-si,35.82333,128.73778,129903
Kisaran,2.9845,99.6158,129911
Wuda,39.49944,106.71167,129922
Yaoundé,3.86667,11.51667,1299369
Dehri,24.90504,84.18289,129938
Tychy,50.13717,18.96641,130000
Shangri-La,27.82511,99.70779,130000
Ramenki,55.7,37.5,130000
Syevyerodonets’k,48.94832,38.49166,130000
Sabhā,27.03766,14.42832,130000
Mostaganem,35.93115,0.08918,130000
Medina,24.46861,39.61417,1300000
Manzanillo,19.05222,-104.31583,130035
Relizane,35.73734,0.55599,130094
Masaya,11.97444,-86.09417,130113
Sinnar,13.56907,33.56718,130122
Jaraguá do Sul,-26.48611,-49.06667,130130
Baotou,40.65222,109.82222,1301768
Songjiang,31.03595,121.2146,130218
La Ceiba,15.75971,-86.78221,130218
Quilpué,-33.04752,-71.44249,130263
Girardot City,4.30079,-74.80754,130289
Jiazi,22.87932,116.07318,130298
Nablus,32.22111,35.25444,130326
Florencia,1.61438,-75.60623,130337
Maicao,11.38321,-72.24321,130348
South Tangerang,-6.28862,106.71789,1303569
Dongyang,29.26778,120.22528,130387
Petrogradka,59.96567,30.31154,130455
Nikopol’,47.57119,34.39637,130500
Moga,30.81571,75.17419,130549
Šiauliai,55.93333,23.31667,130587
Dąbrowa Górnicza,50.31818,19.2374,130601
Abohar,30.14453,74.19552,130603
Garza García,25.65384,-100.37758,130646
Kawasaki,35.52056,139.71722,1306785
Isesaki,36.31667,139.2,130692
Shuangcheng,45.35,126.28333,130710
San Diego,32.71533,-117.15726,1307402
Al Bāb,36.36994,37.51788,130745
Dazhou,31.21592,107.50092,130749
Buenos Aires,-34.61315,-58.37723,13076300
Pinsk,52.1229,26.0951,130777
Beāwar,26.10119,74.32028,130777
Matsubara,34.56667,135.55,130855
Sapucaia,-29.83333,-51.15,130937
Buzău,45.15,26.83333,130954
Novomoskovsk,54.0105,38.2846,130982
Miyakonojō,31.73333,131.06667,130994
Pīlībhīt,28.63098,79.80338,131008
Lashio,22.9359,97.7498,131016
McKinney,33.19762,-96.61527,131117
Īrānshahr,27.20245,60.68476,131232
Hepo,23.43077,115.82991,131238
Toowoomba,-27.56056,151.95386,131258
Rānīganj,23.6164,87.13061,131261
Gonbad-e Kāvūs,37.25004,55.16721,131416
Villeurbanne,45.76667,4.88333,131445
Martapura,-3.4109,114.8642,131449
Majie,25.0319,102.638,131696
Kadoma,34.7381,135.57442,131727
Kishangarh,26.5741,74.86685,131749
Abiko,35.86667,140.01667,131771
Punto Fijo,11.6956,-70.19957,131784
Bulaon,15.08262,120.66288,131818
Dawukou,39.04194,106.39583,131880
Shahrud,36.41819,54.97628,131889
Godhra,22.77547,73.61488,131913
Ōmuta,33.03333,130.45,131974
St. Catharines,43.17126,-79.24267,131989
Tórshavn,62.00973,-6.77164,13200
Muricay,7.8275,123.4782,132094
Makassar,-5.14,119.4221,1321717
Pindamonhangaba,-22.92389,-45.46167,132218
Zalantun,48,122.71667,132224
Dimitrovgrad,54.21386,49.61838,132226
Quetzaltenango,14.83472,-91.51806,132230
Kakamigahara,35.41667,136.86667,132241
Tlemcen,34.87833,-1.315,132341
Cerro,23.10861,-82.37778,132351
Mecca,21.42664,39.82563,1323624
Blitar,-8.0983,112.1681,132416
Gorakhpur,29.44768,75.67206,1324570
Ankang,32.68,109.01722,132654
Palakkad,10.7744,76.65625,132728
Nzérékoré,7.75624,-8.8179,132728
Hoofddorp,52.3025,4.68889,132734
San Antonio,29.42412,-98.49363,1327407
Kislovodsk,43.91333,42.72083,132771
Mīāndoāb,36.96667,46.10961,132819
Shillong,25.56892,91.88313,132842
Sandachō,34.88444,135.22694,132858
Fujieda,34.86667,138.26667,132859
Tondabayashichō,34.50065,135.60211,132873
Puqi,29.71667,113.88333,132891
Clarksville,36.52977,-87.35945,132929
Ibarra,0.35171,-78.12233,132977
Hawassa,7.06205,38.47635,133097
Talisay,10.24472,123.84944,133148
Bīrganj,27.01043,84.87735,133238
Okrika,4.74159,7.08488,133271
Reggio nell'Emilia,44.69825,10.63125,133296
Hindupur,13.82908,77.4924,133298
Valdivia,-39.81422,-73.24589,133419
Bhuj,23.25397,69.66928,133459
Marg‘ilon,40.47111,71.72472,133490
Gonda,27.13253,81.96897,133583
Pervoural’sk,56.90528,59.94361,133600
Hājīpur,25.69003,85.20954,133606
Randfontein,-26.1844,27.70203,133654
Avarua,-21.20778,-159.775,13373
Würzburg,49.79391,9.95121,133731
Singaraja,-8.112,115.08818,133784
Douala,4.04827,9.70428,1338082
Belmopan,17.25,-88.76667,13381
Thành Phố Thái Nguyên,21.59422,105.84817,133877
Ebetsu,43.10806,141.55056,133953
Inegol,40.07806,29.51333,133959
Bānkura,23.23241,87.0716,133966
Dali,25.58474,100.21229,134040
Warren,42.47754,-83.0277,134056
Slough,51.50949,-0.59541,134072
Abakaliki,6.32485,8.11368,134102
Adiwerna,-6.9375,109.1325,134188
Léogâne,18.50959,-72.63147,134190
Khulna,22.80979,89.56439,1342339
Ikirun,7.91283,4.66741,134240
Seto,35.23333,137.1,134246
León,42.60003,-5.57032,134305
Śródmieście,52.22904,21.01644,134306
San Mateo,14.6982,121.1236,134327
Nevinnomyssk,44.6333,41.9444,134345
Ajdabiya,30.75545,20.22625,134358
Tuxpan de Rodríguez Cano,20.95773,-97.40798,134394
Córdoba,18.88584,-96.93125,134403
Chetumal,18.51413,-88.30381,134412
Rodriguez,14.76011,121.19993,134432
's-Hertogenbosch,51.69917,5.30417,134520
Marbella,36.51543,-4.88583,134623
Zama,35.48889,139.38861,134671
El Oued,33.35608,6.86319,134699
Baturaja,-4.12891,104.16695,134759
Okap,19.75938,-72.19815,134815
Cartago,4.74639,-75.91167,134827
Mandya,12.52145,76.89527,134845
Chhindwāra,22.05697,78.93958,134847
Bielany,52.29242,20.93531,134854
Jayapura,-2.53371,140.71813,134895
Hanam,37.54,127.20556,134902
Hinthada,17.64944,95.45705,134947
Yekaterinburg,56.8519,60.6122,1349772
Cajamarca,-7.16378,-78.50027,135000
Fullerton,33.87029,-117.92534,135161
Moundou,8.56667,16.08333,135167
Tyre,33.27333,35.19389,135204
Robertsonpet,12.95629,78.27543,135218
Cary,35.79154,-78.78112,135234
Rabak,13.18087,32.73999,135281
Shiqiao,22.9464,113.35769,135308
Pyay,18.82464,95.22216,135308
Kampala,0.31628,32.58219,1353189
Buguma,4.73614,6.86236,135404
Cẩm Phả Mines,21.01667,107.3,135477
West Bromwich,52.51868,-1.9945,135618
Baliuag,14.95472,120.89694,135679
Kindu,-2.94373,25.92237,135698
Kushtia,23.9028,89.11943,135724
Queimados,-22.71611,-43.55528,135741
Jagdaqi,50.41667,124.11667,135760
Osorno,-40.57395,-73.13348,135773
Tasek Glugor,5.48032,100.49849,135786
Handan,36.60056,114.46778,1358318
Dimāpur,25.91174,93.7217,135860
Lleida,41.61674,0.62218,135919
Perovo,55.73501,37.79088,136000
Desē,11.13333,39.63333,136056
Mahbūbnagar,16.74385,77.98597,136135
Gejiu,23.36085,103.15372,136135
Savannah,32.08354,-81.09983,136286
Orange,33.78779,-117.85311,136416
Santa Cruz de la Sierra,-17.78629,-63.18117,1364389
Van Nuys,34.18667,-118.44897,136443
São Caetano do Sul,-23.62306,-46.55111,136453
Podgorica,42.44111,19.26361,136473
Kabankalan,9.9902,122.8142,136483
Baia Mare,47.65729,23.56808,136553
Shizuishan,39.23333,106.76944,136570
Apeldoorn,52.21,5.96944,136670
Igboho,8.83784,3.75628,136764
Dawei,14.07375,98.19423,136783
Funtua,11.52351,7.31174,136811
San Juan Sacatepéquez,14.71889,-90.64417,136886
Kānchrāpāra,22.95998,88.42849,136954
Foggia,41.45845,15.55188,137032
Odintsovo,55.67798,37.27773,137041
Hami,42.83393,93.50601,137072
Jiashan,30.84918,120.92583,137112
Pasadena,34.14778,-118.14452,137122
Irákleion,35.32787,25.14341,137154
Saint-Denis,-20.88231,55.4504,137195
Tangerang,-6.17806,106.63,1372124
Negombo,7.2083,79.8358,137223
Porto Alegre,-30.03306,-51.23,1372741
Bhisho,-32.84721,27.44218,137287
Bitung,1.45697,125.1895,137364
Lubumbashi,-11.66089,27.47938,1373770
Castanhal,-1.29389,-47.92639,137406
Hampton,37.02987,-76.34522,137436
Jieshi,22.81027,115.83058,137444
Musashino,35.70611,139.55944,137479
Dikirnis,31.08898,31.59478,137542
Itu,-23.26417,-47.29917,137586
Tijuana,32.5027,-117.00371,1376457
Obuasi,6.20602,-1.66191,137856
Jacmel,18.23427,-72.53539,137966
Baia Mare,47.65331,23.57949,137976
Guankou,28.15861,113.62709,1380000
Parnaíba,-2.90472,-41.77667,138008
Ānand,22.55251,72.9552,138009
Barranquilla,10.96854,-74.78132,1380425
Telford,52.67659,-2.44926,138241
Tiruvannāmalai,12.22662,79.07461,138243
Thānesar,29.97323,76.83214,138279
Ejigbo,7.90292,4.31419,138357
Gujrānwāla,32.16167,74.18831,1384471
Chaohu,31.6,117.86667,138463
Metairie,29.98409,-90.15285,138481
Valencia,10.16202,-68.00765,1385083
The Bronx,40.84985,-73.86641,1385108
Chitradurga,14.22262,76.40038,138587
Salamanca,20.57196,-101.19154,138614
Sa Pá,22.34023,103.84415,138622
Hyderabad,25.39242,68.37366,1386330
Clermont-Ferrand,45.77966,3.08628,138681
Fuyu,45.18333,124.81667,138704
Porbandar,21.64219,69.60929,138872
Sekondi-Takoradi,4.934,-1.7137,138872
Kolpino,59.75069,30.58856,138979
Brighton,50.82838,-0.13947,139001
Weru,-6.711,108.5037,139004
Huadian,42.96333,126.74778,139047
Budapest XI. kerület,47.47603,19.03605,139049
Stockport,53.40979,-2.15761,139052
Luoyang,34.68361,112.45361,1390581
Choloma,15.61444,-87.95302,139100
Antananarivo,-18.91368,47.53613,1391433
Kariya,34.98333,136.98333,139159
Şabāḩ as Sālim,29.25722,48.05722,139163
Sidoarjo,-7.4478,112.7183,139189
Fukuoka-shi,33.60639,130.41806,1392289
San Luis Río Colorado,32.45612,-114.77186,139254
Kumbakonam,10.96209,79.39124,139264
Hābra,22.84202,88.65606,139297
Altay,47.84864,88.13361,139341
Man,7.41251,-7.55383,139341
Siem Reap,13.36179,103.86056,139458
Gbongan,7.47734,4.35351,139485
Haldwani,29.22254,79.5286,139497
Gojra,31.14874,72.68656,139726
Dadu,26.73287,67.77631,139784
Korolev,55.91417,37.82556,139798
Mesquite,32.7668,-96.59916,139824
Amersfoort,52.155,5.3875,139914
Alexandria,38.80484,-77.04692,139966
Peristéri,38.01539,23.69187,139981
Quito,-0.22985,-78.52495,1399814
Philipsburg,18.026,-63.04582,1400
Parepare,-4.0135,119.6255,140000
Shanhaiguan,40.0025,119.74889,140000
Sarrià-Sant Gervasi,41.40104,2.1394,140000
Chamartín,40.46206,-3.6766,140000
Ayacucho,-13.15878,-74.22321,140033
Vidisha,23.52435,77.80972,140045
Hazārībāg,23.99507,85.36109,140063
Fushun,41.85583,123.92333,1400646
Sunnyvale,37.36883,-122.03635,140081
Zaanstad,52.45313,4.81356,140085
Mpumalanga,-29.81292,30.63646,140121
Peterborough,52.57364,-0.24777,140141
Lakhīmpur,27.952,80.78257,140223
Tarragona,41.11667,1.25,140323
Darmstadt,49.87167,8.65027,140385
Tirmiz,37.22417,67.27833,140385
Al’met’yevsk,54.90442,52.3154,140437
Kaithal,29.8019,76.39667,140604
Los Teques,10.34447,-67.04325,140617
Nigel,-26.43138,28.47713,140644
Hollywood,26.0112,-80.14949,140768
Belém,-1.45583,-48.50444,1407737
Norilsk,69.3535,88.2027,140800
Kampung Sungai Ara,5.32699,100.27348,140849
Comodoro Rivadavia,-45.86413,-67.49656,140850
Gongzhuling,43.50075,124.81979,140909
Īlām,33.6374,46.4227,140940
Vadodara,22.29941,73.20812,1409476
Ghazni,33.55391,68.42096,141000
Paranaguá,-25.51626,-48.52537,141013
Rijeka,45.34306,14.40917,141172
Limoges,45.83153,1.25781,141176
Usera,40.38866,-3.70035,141189
Potosí,-19.58361,-65.75306,141251
Bursa,40.19266,29.08403,1412701
Lauro de Freitas,-12.89444,-38.32722,141280
Ciudad del Carmen,18.64592,-91.82991,141308
Bolton,53.58333,-2.43333,141331
Yonago,35.43333,133.33333,141368
Ibirité,-20.02194,-44.05889,141374
Bālurghāt,25.22099,88.77732,141404
Petapa,14.50278,-90.55167,141455
Dayton,39.75895,-84.19161,141527
Tours,47.38333,0.68333,141621
Zheleznodorozhnyy,55.744,38.01684,141648
Arnhem,51.98,5.91111,141674
Gwangju,35.15472,126.91556,1416938
Myingyan,21.46002,95.3884,141713
eMbalenhle,-26.53333,29.06667,141741
Naperville,41.78586,-88.14729,141853
Taza,34.21,-4.01,141890
Yuen Long Kau Hui,22.45,114.03333,141900
Novosibirsk,55.0415,82.9346,1419007
Jieshou,33.26338,115.36108,141993
Chertanovo Yuzhnoye,55.59072,37.59519,142000
Ciego de Ávila,21.84,-78.76194,142027
Kimberley,-28.73226,24.76232,142089
Paderborn,51.71905,8.75439,142161
Jinhua,29.10678,119.64421,142206
Nawābganj,24.59025,88.27444,142361
Khānpur,28.64534,70.6567,142426
Tabrīz,38.08,46.2919,1424641
Tuzla,44.53842,18.66709,142486
Metairie Terrace,29.97854,-90.16396,142489
Mallawī,27.7314,30.84165,142504
Tanjungbalai,2.96667,99.8,142506
Rybnik,50.09713,18.54179,142510
Sant Andreu de Palomar,41.43541,2.18982,142598
Khimki,55.89704,37.42969,142618
Middlesbrough,54.57623,-1.23483,142707
Córdoba,-31.4135,-64.18105,1428214
Pyatigorsk,44.04861,43.05944,142865
Bhīmavaram,16.54078,81.52322,142967
Lakewood,39.70471,-105.08137,142980
Kuz’minki,55.7,37.8,143000
Novyye Kuz’minki,55.7,37.75,143000
Āgra,27.18333,78.01667,1430055
Cape Coast,5.10535,-1.2466,143015
Macaé,-22.37083,-41.78694,143029
Calama,-22.45591,-68.93015,143084
Amiens,49.9,2.3,143086
Kharkiv,49.98081,36.25272,1430885
Blackpool,53.81667,-3.05,143101
Cabo,-8.28333,-35.03333,143105
Hanoi,21.0245,105.84117,1431270
Kenema,7.87687,-11.19025,143137
Heidelberg,49.40768,8.69079,143345
Béchar,31.61667,-2.21667,143382
Stara Zagora,42.43278,25.64194,143431
Luziânia,-16.2525,-47.95028,143601
Marawi City,8.0034,124.28395,143627
Saguenay,48.41675,-71.06573,143692
Acarigua,9.55451,-69.19564,143704
Multān,30.19556,71.47528,1437230
Urayasu,35.67056,139.88861,143758
Dumai,1.66711,101.44316,143760
Ipswich,52.05917,1.15545,143767
Otaru,43.18944,141.00222,143792
Escondido,33.11921,-117.08642,143911
Kafr ash Shaykh,31.1143,30.94012,143970
Fort Collins,40.58526,-105.08442,143986
Wola,52.2401,20.98869,143996
Orekhovo-Borisovo,55.61252,37.72639,144000
Biryulëvo,55.58635,37.67781,144000
Tizi Ouzou,36.71182,4.04591,144000
Teshi Old Town,5.58365,-0.10722,144013
Goma,-1.67409,29.22845,144124
Palembang,-2.91673,104.7458,1441500
Hayward,37.66882,-122.0808,144186
Gorontalo,0.5412,123.0595,144195
York,53.95763,-1.08271,144202
Meizhou,24.29769,116.10724,144212
Kathmandu,27.70169,85.3206,1442271
Bridgeport,41.16704,-73.20483,144229
Jinchang,38.50062,102.19379,144363
Elektrostal’,55.78959,38.44671,144387
Kumba,4.6363,9.4469,144413
Le Mans,48,0.2,144515
León,12.43787,-86.87804,144538
Phoenix,33.44838,-112.07404,1445632
Acheng,45.54545,126.97703,144665
Ciudad Acuña,29.32322,-100.95217,144669
Sanya,18.24306,109.505,144753
Sikasso,11.31755,-5.66654,144786
Karaj,35.83266,50.99155,1448075
Khŭjand,40.28256,69.62216,144865
Brest,48.4,-4.48333,144899
Spanish Town,17.99107,-76.95742,145018
Syracuse,43.04812,-76.14742,145170
Concordia,-31.39296,-58.02089,145210
Potsdam,52.39886,13.06566,145292
Tabora,-5.01622,32.82663,145292
Kuala Lumpur,3.1412,101.68653,1453975
Torrance,33.83585,-118.34063,145438
Taishan,22.25135,112.7799,145440
Batāla,31.81861,75.20278,145468
Yamaguchi-shi,34.18583,131.47139,145515
Cikampek,-6.41972,107.45583,145620
Kampung Pasir Gudang Baru,1.4726,103.878,145639
Saharsa,25.88505,86.59471,145764
Kansas City,39.11417,-94.62746,145786
Orkney,-26.98023,26.67272,145801
Marabá,-5.36861,-49.11778,145860
Xinji,37.90278,115.20361,145911
Krishnanagar,23.40576,88.49073,145926
Odense,55.39594,10.38831,145931
Chamberí,40.43404,-3.70379,145934
Kyoto,35.02107,135.75385,1459640
Hanzhong,33.07278,107.03028,145986
Boise,43.6135,-116.20345,145987
Kota Bharu,6.13328,102.2386,1459994
Puerto Plata,19.79344,-70.6884,146000
Qujing,25.48333,103.78333,146015
Gweru,-19.45,29.81667,146073
Afyonkarahisar,38.75667,30.54333,146136
Cuautla Morelos,18.80459,-98.94555,146178
Ruda Śląska,50.2584,18.85632,146189
Paterson,40.91677,-74.17181,146199
Parma,44.79935,10.32618,146299
Poços de Caldas,-21.78778,-46.56139,146588
Saint-Quentin-en-Yvelines,48.77186,2.01891,146598
Matanzas,23.04111,-81.5775,146733
Cam Ranh,11.92144,109.15913,146771
Ambāla,30.36285,76.79516,146787
Aix-en-Provence,43.5283,5.44973,146821
Gulu,2.77457,32.29899,146858
Kumasi,6.68848,-1.62443,1468609
Târgu-Mureş,46.54245,24.55747,146863
Nakhodka,42.81384,132.87348,146920
Kalemie,-5.94749,29.19471,146974
Buôn Ma Thuột,12.66747,108.03775,146975
Manama,26.21536,50.5832,147074
Trondheim,63.43049,10.39506,147139
Erode,11.3428,77.72741,147270
Nilópolis,-22.8075,-43.41389,147281
Joliet,41.52519,-88.0834,147433
Aktau,43.64806,51.17222,147443
Kragujevac,44.01667,20.91667,147473
Daejeon,36.32139,127.41972,1475221
Kreuzberg,52.49973,13.40338,147532
El Jadida,33.25492,-8.50602,147549
Khon Kaen,16.44671,102.833,147579
Haarlem,52.38084,4.63683,147590
As Sālimīyah,29.33389,48.07611,147649
Mestre,45.47152,12.24017,147662
Ursynów,52.15051,21.05041,147676
Rafsanjān,30.4067,55.9939,147680
Kolomna,55.07944,38.77833,147690
Salamanca,40.42972,-3.67975,147707
Médéa,36.26417,2.75393,147707
Recife,-8.05389,-34.88111,1478098
Huánuco,-9.93062,-76.24223,147959
Honggang,46.40124,124.88322,147977
Nuuk,64.18347,-51.72157,14798
East Hampton,37.03737,-76.33161,147993
Jijel,36.82055,5.76671,148000
Astanajapura,-6.8017,108.6311,148047
Thành Phố Hạ Long,20.95045,107.07336,148066
Caxias,-4.85889,-43.35611,148072
Sujiatun,41.65917,123.33917,148113
Palangkaraya,-2.2136,113.9108,148139
Bārākpur,22.76602,88.36336,148174
Asunción,-25.30066,-57.63591,1482200
Nîmes,43.83333,4.35,148236
Lubuklinggau,-3.2945,102.8614,148243
El Limón,10.30589,-67.63212,148247
Badajoz,38.87789,-6.97061,148334
Moriguchi,34.73333,135.56667,148350
Chizhou,30.66134,117.47783,148375
Gyumri,40.7942,43.84528,148381
Valencia,34.44361,-118.60953,148456
Yulin,22.63333,110.15,148485
‘Ar‘ar,30.97531,41.03808,148540
Chingola,-12.52897,27.88382,148564
Manhattan,40.78343,-73.96625,1487536
Arganzuela,40.40021,-3.69618,148797
Huelva,37.26638,-6.94004,148806
Dunhua,43.3725,128.2425,148844
Prenzlauer Berg,52.53878,13.42443,148878
Huddersfield,53.64904,-1.78416,149017
Pasadena,29.69106,-95.2091,149043
Pomona,34.05529,-117.75228,149058
Cagliari,39.23054,9.11917,149257
Ōme,35.78389,139.24306,149323
Metro,-5.11306,105.30667,149526
City Center,40.41831,-3.70275,149718
Dijon,47.31667,5.01667,149782
Shāntipur,23.24723,88.43302,149983
Mossel Bay,-34.18307,22.14605,150000
Dili,-8.55861,125.57361,150000
Zhulebino,55.7,37.85,150000
Mascara,35.39664,0.14027,150000
Malkajgiri,17.44781,78.52633,150000
Gimcheon,36.12176,128.11981,150000
Vryheid,-27.76952,30.79165,150012
Kartuzy,54.33424,18.19735,15002
Fillmore,34.39916,-118.91815,15002
Campo de Criptana,39.40463,-3.12492,15006
Oraiókastro,40.73083,22.91722,15006
Béjar,40.38641,-5.76341,15007
Rotselaar,50.95302,4.71665,15007
Misrikh,27.43201,80.53135,15007
Ūn,29.58479,77.2554,15007
Nakhon Luang,14.46281,100.60832,15008
Mahanje,-9.93333,35.33333,15009
Avon,48.40219,2.72022,15009
Poole,50.71667,-2,150092
Balashikha,55.80945,37.95806,150103
Alto Lucero,20.95361,-97.44194,15011
Urganch,41.55,60.63333,150110
Vasylivka,47.43694,35.27417,15012
Skalica,48.8449,17.22635,15013
Kafr Mandā,32.81034,35.26009,15014
Kızıltepe,37.19319,40.58799,150174
Piedras Negras,28.70007,-100.52353,150178
Qarqīn,37.41853,66.04358,15018
Eggertsville,42.96339,-78.80392,15019
Sulyukta,39.93652,69.56779,15019
Khamaria,23.22542,79.88005,15019
Detva,48.56082,19.41954,15020
Purwodadi,-7.0868,110.9158,150206
Khetia,21.67124,74.58535,15021
Boulder City,35.97859,-114.83249,15023
Clitheroe,53.86667,-2.4,15024
Bago City,10.53333,122.83333,150250
Salzburg,47.79941,13.04399,150269
Brignoles,43.4,6.06667,15027
Berkovitsa,43.23611,23.12583,15027
Korsør,55.32993,11.13857,15029
Montichiari,45.41317,10.39799,15030
Żabbar,35.87611,14.535,15030
Tucumã,-0.18333,-50.05,15030
Ighram,36.46295,4.50532,15030
Santiago de María,13.48333,-88.46667,15032
Jabal os Saraj,35.11833,69.23778,15032
Parnamirim,-5.91556,-35.26278,150343
Berja,36.84693,-2.94966,15035
Virār,19.45591,72.81136,150357
Rocca di Papa,41.7658,12.70188,15036
Llandudno,53.32498,-3.83148,15037
Găeşti,44.71667,25.31667,15037
Jasper,38.39144,-86.93111,15038
Scottsbluff,41.86663,-103.66717,15039
Siloam Springs,36.18814,-94.5405,15039
Chillán,-36.60664,-72.10344,150396
Klášterec nad Ohří,50.3886,13.18342,15040
La Trinité,14.73758,-60.96286,15040
Trossingen,48.07667,8.64409,15040
Boujniba,32.90046,-6.77464,15041
Pacific Grove,36.61774,-121.91662,15041
Cisnădie,45.71667,24.15,15042
Port Hedland,-20.31215,118.61059,15044
Salinas,36.67774,-121.6555,150441
Battambang,13.10271,103.19822,150444
Huangyan,28.6501,121.26591,150448
Three Lakes,25.64205,-80.39839,15047
Boguchar,49.93577,40.545,15048
Darya Khān,31.79123,71.10394,15048
Bāntva,21.48815,70.07576,15051
San Rafael Arriba,9.87556,-84.07661,15051
Serilingampalle,17.49313,78.30196,150525
Kriel,-26.27391,29.2253,15055
Higashimurayama-shi,35.75459,139.46852,150556
Pachperwa,27.51234,82.64297,15056
Highland Village,33.09179,-97.04668,15056
Cruzeiro do Oeste,-23.785,-53.07333,15057
Ōgaki,35.35,136.61667,150570
Espiye,40.94705,38.70299,15058
Spitak,40.83221,44.26731,15059
La Unión,1.6045,-77.13152,15061
Fort Leonard Wood,37.70573,-92.15717,15061
Cajueiro,-9.71667,-36.45,15062
Greeneville,36.16316,-82.83099,15062
Horodyshche,49.28489,31.44513,15063
Spanish Springs,39.64908,-119.70741,15064
Punjai Puliyampatti,11.35163,77.16671,15066
Ramos,15.6653,120.6406,15066
Babo-Pangulo,15.08333,120.51667,15066
La Laguna,28.4853,-16.32014,150661
Paradise,10.65298,-61.36298,15067
Newport Pagnell,52.08731,-0.72218,15067
Usehat,27.79817,79.23682,15068
Sakassou,7.45462,-5.29263,15068
Loudi,27.73444,111.99444,150684
Pupri,26.47079,85.70311,15070
Slaný,50.23046,14.08693,15070
Künzelsau,49.2818,9.68352,15070
Noordwijkerhout,52.26167,4.49306,15071
Mandapam,9.27571,79.12362,15073
Hatton,6.8916,80.5955,15073
Venustiano Carranza,16.33945,-92.56293,15074
Rāj Nāndgaon,21.1,81.03333,150755
Lālpur,22.19073,69.96351,15076
Kocaali,41.05336,30.85278,15076
Naraini,25.19033,80.475,15077
Mexborough,53.49389,-1.29243,15079
Virac,13.5848,124.2374,15079
Gaomi,36.38333,119.75278,150793
Coishco,-9.02306,-78.61556,15083
Brackenheim,49.07787,9.06601,15083
Tepatlaxco de Hidalgo,19.06747,-97.96595,15084
Carnegie,-37.88867,145.05713,15084
Guarapuava,-25.39048,-51.46541,150850
Adelphi,39.00317,-76.97192,15086
Villanueva del Pardillo,40.48333,-3.96667,15087
Isanlu Itedoijowa,8.26667,5.83333,15087
Araci,-11.33333,-38.96667,15088
Minatitlan,17.99925,-94.55441,150895
Dādhar,29.47527,67.65135,15090
Kiskőrös,46.62139,19.28528,15091
Polyarnyye Zori,67.36611,32.49806,15092
Santa Cecília,-26.96083,-50.42694,15092
Dalandzadgad,43.57083,104.425,15093
Soreang,-7.03306,107.51833,150932
Binika,21.03333,83.8,15095
Doma,8.39307,8.35544,15097
Markaz-e Woluswalī-ye Āchīn,34.12583,70.70778,15098
Portland,27.87725,-97.32388,15099
El Tigre,8.88752,-64.24544,150999
Trindade,-27.58612,-48.52335,15100
Pochep,52.9336,33.4464,15100
Pijijiapan,15.68618,-93.20938,15101
East Longmeadow,42.06454,-72.51259,15102
Komaki,35.28333,136.91667,151025
Głowno,51.96463,19.71565,15103
Rio Linda,38.69101,-121.44857,15106
Monthey,46.25546,6.96066,15106
Nicolás R Casillas,20.54638,-103.46622,15107
Humboldtkolonie,50.93182,6.99469,15108
Domalanoan,16.00292,120.21154,15108
La Falda,-31.08841,-64.48987,15112
San Gabriel,0.59318,-77.83078,15112
Hilvarenbeek,51.48583,5.1375,15113
East Brainerd,34.99591,-85.15023,15114
Sorada,19.76082,84.42997,15117
Villanova,41.96357,12.75633,15117
Paraty,-23.21778,-44.71306,15118
Uchkeken,43.93778,42.51167,15118
Phek,25.66667,94.5,15118
Santa Bárbara,14.91944,-88.23611,15119
Głuchołazy,50.31505,17.38355,15120
Lamont,35.25968,-118.91427,15120
Benguela,-12.57626,13.40547,151226
Ciudad Juárez,31.73333,-106.48333,1512354
Saqqez,36.24992,46.2735,151237
Solec Kujawski,53.08371,18.22572,15125
Bredbury,53.41667,-2.11667,15126
Cloverly,39.10816,-76.99775,15126
Bella Vista,-27.03424,-65.30196,15126
Dologon,7.84083,125.04444,15128
Qingyuan,23.7,113.03333,151287
Morteros,-30.71164,-61.99862,15129
Crucecita,15.76889,-96.135,15130
Tonawanda,43.02033,-78.88031,15130
Buwenge,0.64222,33.17444,15130
Resplendor,-19.32556,-41.25528,15131
Sukuta,13.41033,-16.70815,15131
Kenda,23.1959,86.51499,15131
Greater Napanee,44.25012,-76.94944,15132
Sarykemer,43,71.5,15132
Humble,29.99883,-95.26216,15133
Khāsh,31.52919,62.79055,15133
Tonk,26.16638,75.78824,151331
Riverdale,33.57261,-84.41326,15134
Bang Saphan,11.21259,99.51167,15134
Washington,40.70365,-89.40731,15134
Carindale,-27.50578,153.10236,15135
East Rancho Dominguez,33.89807,-118.19535,15135
Korwai,24.11774,78.04007,15136
Corigliano Scalo,39.62713,16.51368,15136
Lüderitz,-26.64806,15.15944,15137
Cetinje,42.39063,18.91417,15137
Wilmington Island,32.00355,-80.97372,15138
Noyon,49.58333,3,15138
Mirano,45.49458,12.10775,15139
Pinhão,-25.69556,-51.65972,15141
Hindoriā,23.90264,79.56904,15142
Kohāt,33.58196,71.44929,151427
Chom Bueng,13.62,99.59169,15143
Ad Dindar,13.2,34.16667,15144
Ajaokuta,7.56229,6.65497,15144
Seven Oaks,34.04876,-81.14648,15144
Voorhout,52.22167,4.48472,15145
Westbury,40.75566,-73.58763,15146
Hopatcong,40.93288,-74.65933,15147
Rossville,39.33844,-76.47968,15147
Sarandë,39.87556,20.00528,15147
Ústí nad Orlicí,49.97387,16.39361,15151
Belvedere Park,33.75483,-84.26742,15152
Petite Rivière Salée,14.75,-60.96667,15152
Ternitz,47.71565,16.03575,15153
Sarandi,-27.94389,-52.92306,15158
Rondebosch,-33.96333,18.47639,15158
Dundee,56.46913,-2.97489,151592
Itapecerica da Serra,-23.71694,-46.84917,151605
Bintulu,3.16667,113.03333,151617
Celso Ramos,-27.63444,-51.33639,15162
Trbovlje,46.155,15.05333,15163
Nosivka,50.93152,31.58282,15164
Bogovinje,41.92361,20.91361,15166
Cholula,19.06406,-98.30352,151667
El Palmar,14.65,-91.58333,15167
Brighton East,-37.90232,145.01734,15167
Leninsk,48.70233,45.19798,15167
Highview,38.14285,-85.62413,15167
Dieburg,49.89738,8.84613,15168
Mlangali,-9.78333,34.51667,15168
Abbotsford,49.05798,-122.25257,151683
Giaginskaya,44.86208,40.07195,15169
Catriel,-37.87907,-67.7956,15169
Bussolengo,45.46903,10.85371,15170
Manga,11.66361,-1.07306,15173
Johnson City,42.11563,-75.95881,15174
Brunswick,43.91452,-69.96533,15175
Khāpa,21.42264,78.98165,15175
Bad Lippspringe,51.78333,8.81683,15175
Guacara,10.22609,-67.877,151752
Hope Mills,34.97044,-78.94531,15176
Báguanos,20.75167,-76.02694,15176
Gwoza,11.08243,13.69745,15176
McKinleyville,40.94652,-124.10062,15177
Ganye,8.43333,12.06667,15178
Nowy Tomyśl,52.3195,16.12844,15179
Yelan’,50.949,43.73781,15181
Chiriguaná,9.36238,-73.60313,15181
Tangancícuaro de Arista,19.88733,-102.20636,15182
Suifenhe,44.39982,131.14775,15183
Bad Laasphe,50.93139,8.42502,15184
Khao Wong,16.70008,104.09019,15184
Ascheberg,51.78333,7.61667,15184
New Territory,29.59412,-95.68078,15186
Fords,40.52927,-74.31598,15187
Eggenstein-Leopoldshafen,49.09006,8.39879,15189
Foça,38.6703,26.75656,15189
Sibiu,45.8,24.15,151894
Astara,38.45598,48.87498,15190
Moussoro,13.64143,16.48941,15190
Steffisburg,46.77807,7.63249,15191
Taylor,30.57076,-97.40944,15191
Mangilao Village,13.44761,144.80109,15191
Bảo Lộc,11.54798,107.80772,151915
Cambridge,-37.87822,175.4402,15192
Teodoro Sampaio,-22.5325,-52.1675,15193
Bosanska Krupa,44.8825,16.15139,15193
Owosso,42.9978,-84.17664,15194
Gyomaendrőd,46.93333,20.83333,15194
Punata,-17.54234,-65.83472,15194
Conyers,33.66761,-84.01769,15195
Yashkino,55.8736,85.4265,15197
Chotila,22.42347,71.19641,15197
Le Hochet,-20.135,57.52111,15197
Kaohsiung,22.61626,120.31333,1519711
Holzkirchen,47.87663,11.70181,15199
Gangolli,13.65024,74.67072,15200
Safi,31.03608,35.46544,15200
Strogino,55.81838,37.41224,152000
Morena,26.50286,78.00163,152004
Bekasi,-6.2349,106.9896,1520119
Tanout,14.97089,8.88786,15204
Haslingden,53.70326,-2.32382,15204
Nizhnesortymskiy,62.43965,71.76029,15204
Magarao,13.6604,123.1869,15205
Greenwood,33.51623,-90.17953,15205
Longfeng,46.53168,125.1038,152074
Phon Charoen,18.03333,103.16667,15208
Hats’avan,39.46405,45.97047,15208
Massamagrell,39.56667,-0.33333,15210
Kuna,43.49183,-116.42012,15210
Ōta,36.3,139.36667,152104
Logroño,42.46667,-2.45,152107
Aleg,17.0481,-13.9209,15211
Merrifield,38.87428,-77.22693,15212
Ledyard Center,41.43982,-72.01424,15212
Daru,-9.07786,143.20893,15214
Vakhsh,37.71485,68.83456,15215
Viterbo,5.06242,-75.87159,15216
Yichun,27.83333,114.4,152169
Muhoroni,-0.15406,35.19878,15217
South Yuba City,39.11656,-121.63913,15217
Dubovka,49.05825,44.829,15217
Opa-locka,25.90232,-80.25033,15219
Deyang,31.13019,104.38198,152194
Kerch,45.3607,36.4706,152195
Mundra,22.83918,69.7219,15220
Vero Beach,27.63864,-80.39727,15220
Cần Giuộc,10.60857,106.67135,152200
Aksaray,38.37255,34.02537,152201
Samobor,45.80306,15.71806,15221
Bānda,25.47534,80.3358,152218
Boskoop,52.075,4.65556,15222
Saint-Maximin-la-Sainte-Baume,43.45214,5.86219,15225
At-Bashi,41.17017,75.81058,15226
Hidalgo,25.8569,-99.61855,15227
Zimnicea,43.66667,25.36667,15228
Buderim,-26.68443,153.05705,15228
Anandpur Sāhib,31.2388,76.50069,15229
Adliswil,47.30997,8.52462,15230
Bellavista,-7.05614,-76.5911,15231
São Gabriel da Cachoeira,-0.1181,-67.08527,15231
Much,50.91667,7.4,15231
Wurzen,51.3707,12.73939,15233
Alborada Jaltenco,19.66194,-99.06889,15235
Freiberg am Neckar,48.93196,9.2024,15235
Aramil,56.6977,60.8369,15237
Soumagne,50.61385,5.74679,15237
Corona,33.87529,-117.56644,152374
Brusciano,40.92237,14.42386,15238
Deutz,50.93463,6.97495,15238
Silchar,24.82733,92.79787,152393
Cahokia,38.57088,-90.19011,15241
Marfil,20.99884,-101.28751,15241
Novosilikatnyy,53.30972,83.62389,15241
Roxas,10.3215,119.3451,15242
Bigadiç,39.3925,28.13111,15242
Songnim,38.75417,125.645,152425
Carmarthen,51.85552,-4.30535,15244
Tecamac de Felipe Villanueva,19.71288,-98.96895,15244
Chenghua,23.46132,116.77007,152453
Neuss,51.19807,6.68504,152457
Vandalia,39.89061,-84.19883,15246
Lilio,14.1313,121.4362,15246
Vyazemskiy,47.53757,134.75556,15247
Orpington,51.37457,0.09785,15248
Clearlake,38.95823,-122.62637,15250
Radomyshl’,50.49613,29.22911,15252
Râşnov,45.58333,25.45,15253
Newton,41.69971,-93.04798,15254
Mitchell,43.70943,-98.0298,15254
Medeiros Neto,-17.37389,-40.22056,15254
Baqubah,33.74659,44.64366,152550
Montesson,48.90924,2.13754,15256
Damascus,39.28844,-77.20387,15257
Lieto,60.51032,22.46176,15258
Abomsa,9.98333,39.98333,15258
Darton,53.58705,-1.52676,15259
Weihai,37.50914,122.11356,152595
Drensteinfurt,51.79535,7.73815,15260
Philadelphia,39.95233,-75.16379,1526006
Jämsä,61.8642,25.19002,15261
Chernyanka,50.94095,37.80693,15261
Ponce,18.01108,-66.61406,152634
Zhashkiv,49.24545,30.1102,15264
Shively,38.20007,-85.82274,15264
Hamilton,-37.78333,175.28333,152641
Jizzax,40.11583,67.84222,152642
Lancenigo-Villorba,45.71289,12.25697,15265
Sofrino,56.15,37.93333,15265
Demerval Lobão,-5.35833,-42.67639,15265
Hazel Grove,53.38333,-2.11667,15265
Udachny,66.42989,112.4021,15266
Beverungen,51.66801,9.37417,15266
Mardakyany,40.49182,50.14292,15267
Aykhal,65.93381,111.4834,15267
Baraguá,21.68216,-78.62567,15268
Lucan,53.35736,-6.44859,15269
Saint Neots,52.21667,-0.26667,15270
San Salvador El Seco,19.13325,-97.64167,15271
Torredembarra,41.14505,1.39861,15272
Karlstadt,49.96034,9.77239,15272
Newport,39.09145,-84.49578,15273
Coulommiers,48.81451,3.08498,15274
Alquízar,22.80583,-82.58417,15275
Palmdale,34.57943,-118.11646,152750
Neu-Anspach,50.31667,8.5,15276
Zamora,-4.06685,-78.95488,15276
Mesquite,36.80553,-114.06719,15276
Putte,51.05337,4.63263,15276
Mount Vernon,38.31727,-88.90312,15277
Lauda-Königshofen,49.56526,9.70816,15278
Kidlington,51.82166,-1.2886,15278
Ropczyce,50.05229,21.60891,15279
Popeşti-Leordeni,44.38333,26.16667,15279
Srīvardhan,18.04592,73.01552,15279
Tepalcatepec,19.18666,-102.8493,15281
Saint-Pierre-des-Corps,47.38623,0.74849,15284
Kobe,34.6913,135.183,1528478
Dalkola,25.87577,87.84009,15285
Sucre,-1.27974,-80.41885,15286
Oyten,53.05,9.01667,15286
Uşak,38.67351,29.4058,152862
Keruguya,-0.49887,37.28031,15287
Rockford,42.27113,-89.094,152871
Hanover,39.80066,-76.98304,15289
As Samawah,31.33198,45.2944,152890
Rondonópolis,-16.47083,-54.63556,152912
Tagas,13.16667,123.71667,15292
Xico,19.42178,-97.00819,15292
Dingzhou,38.51306,114.99556,152934
Linhai,28.84815,121.12807,152937
Adlershof,52.43548,13.54825,15294
Degtyarsk,56.704,60.0879,15294
Seaford,40.66593,-73.48818,15294
Dānāpur,25.6368,85.04586,152940
Ham Lake,45.25024,-93.24995,15296
São José de Mipibu,-6.07472,-35.23778,15298
Orange Walk,18.08124,-88.56328,15298
Donaghmede,53.39845,-6.16179,15299
Bagayevskaya,47.32411,40.38791,15300
Ntungamo,-0.87944,30.26417,15300
Belëv,53.81194,36.13194,15300
Pipili,20.11357,85.83147,15301
Payson,34.23087,-111.32514,15301
Kadınhanı,38.23972,32.21139,15301
Elk Grove,38.4088,-121.37162,153015
Hizan,38.22572,42.42776,15302
Depew,42.90395,-78.69225,15303
Solhan,38.96525,41.05443,15303
Garching bei München,48.24896,11.65101,15303
Abū Zabad,12.35,29.25,15304
Faizābād,26.77691,82.13292,153047
Matam,15.65587,-13.25544,15306
Springfield,42.10148,-72.58981,153060
Cairns,-16.92304,145.76625,153075
Chincha Alta,-13.40985,-76.13235,153076
Jelcz,51.02102,17.32095,15308
Batangafo,7.30082,18.2833,15310
Kāthor,21.28854,72.9407,15311
Warren Township,40.60822,-74.51803,15311
Altdorf,49.3856,11.3573,15312
Wailuku,20.89111,-156.50472,15313
Brownsville,25.82176,-80.24116,15313
Qal‘at al Andalus,37.0629,10.11829,15313
Bang Racham,14.892,100.31728,15313
Benetússer,39.41667,-0.4,15313
Nicoya,10.15038,-85.45093,15313
Łomianki,52.33413,20.88602,15315
Hale,53.37831,-2.33271,15315
Dicholi,15.59319,73.94571,15315
Ocna Mureş,46.38333,23.85,15316
Romblon,12.57513,122.27081,15316
Santomera,38.06147,-1.04877,15319
Mabama,-5.13333,32.53333,15320
Jalpa de Méndez,18.17633,-93.063,15320
Junín,-11.15895,-75.99304,15320
Bhikangaon,21.86694,75.96561,15321
Katāngi,21.77327,79.80554,15321
Straelen,51.4419,6.26639,15325
Fairhope,30.52297,-87.90333,15326
Cardenas,22.00144,-99.64247,15331
Punāhāna,27.86349,77.20434,15332
Medinīpur,22.42114,87.32257,153349
Mīrganj,28.54012,79.20817,15335
Chepo,9.17019,-79.10083,15335
Centerville,40.918,-111.87216,15335
Nova Friburgo,-22.28194,-42.53111,153361
Bathgate,55.90204,-3.64398,15337
Dzaoudzi,-12.78339,45.25693,15339
Jelcz Laskowice,51.02134,17.31649,15340
Tsimlyansk,47.64611,42.10194,15341
Sárvár,47.25395,16.93525,15343
Storrs,41.80843,-72.24952,15344
Choa Saidān Shāh,32.72006,72.98486,15344
Tordera,41.69914,2.71888,15345
Kulunda,52.566,78.9385,15345
Clausthal-Zellerfeld,51.80949,10.33821,15345
San Luis del Palmar,-27.5079,-58.55454,15347
Bürstadt,49.64266,8.45936,15348
Cibolo,29.56162,-98.22696,15349
Cova Figueira,14.89054,-24.29343,15350
Dornakal,17.44475,80.14905,15350
Neston,51.41222,-2.20056,15352
Ban Huai Thalaeng,14.98333,102.65,15352
Bharūch,21.69482,72.9805,153528
Siaya,0.06116,34.28823,15354
Shambu,9.56667,37.1,15354
Yangchun,22.16667,111.78333,153547
Bracken Ridge,-27.3171,153.03097,15355
Suwanee,34.05149,-84.0713,15355
Slobozia,46.72927,29.70446,15356
Bāh,26.86991,78.59443,15359
Lillerød,55.87496,12.34579,15359
Boshan,36.48333,117.83333,153596
Nerchinsk,51.98333,116.58333,15360
Marsabit,2.32839,37.98986,15361
Bahādurgarh,28.69108,76.9316,153613
Noisiel,48.84868,2.62435,15362
Angra dos Reis,-23.00667,-44.31806,153635
Suzun,53.7841,82.3116,15365
Enschede,52.21833,6.89583,153655
Hāfizābād,32.06786,73.68545,153656
Ober-Ramstadt,49.83078,8.74887,15367
Henderson,36.32959,-78.39916,15368
Guna,24.64761,77.31191,153689
Unquillo,-31.23073,-64.31615,15369
Iona,26.52036,-81.96398,15369
Sterling,41.78864,-89.69622,15370
Hereford,34.81506,-102.3977,15370
Forrest City,35.00815,-90.78983,15371
Sanshui,23.15486,112.89161,153714
Nāspur,18.84577,79.46165,15374
Río Cuarto,-33.13067,-64.34992,153757
Sāyla,22.54925,71.48324,15376
Kamenjane,41.94568,20.92894,15376
Sang-e Chārak,35.84972,66.43694,15377
Livorno,43.54427,10.32615,153773
Alandur,13.0025,80.20611,153775
Grandville,42.90975,-85.76309,15378
Bostonia,32.80755,-116.93642,15379
Kachhwā,25.20651,82.71543,15381
Noci,40.79356,17.12681,15383
Makakilo City,21.34694,-158.08583,15383
Brunswick,31.14995,-81.49149,15383
Éragny,49.01667,2.1,15385
Somotillo,13.04328,-86.90645,15385
San Felipe,31.02468,-114.83919,15386
Naciria,36.74625,3.83163,15387
Palagiano,40.57762,17.03812,15388
Sioux Falls,43.54997,-96.70033,153888
Āsind,25.7342,74.33278,15389
Gondar,12.6,37.46667,153914
North Arlington,40.78843,-74.1332,15392
Cugnaux,43.53635,1.34428,15393
Paso de Carrasco,-34.86028,-56.05222,15393
Stowmarket,52.18893,0.99774,15394
Pathalgaon,22.55656,83.46355,15394
Guinguinéo,14.26667,-15.95,15395
Ochër,57.89035,54.72019,15395
Araçoiaba da Serra,-23.50528,-47.61417,15395
Brandýs nad Labem-Stará Boleslav,50.18709,14.66326,15398
Atarfe,37.22479,-3.68686,15399
Lake Butler,28.50167,-81.54091,15400
Bijelo Polje,43.03834,19.74758,15400
Limassol,34.68406,33.03794,154000
Xinzhou,38.40917,112.73333,154003
Prestwick,55.48333,-4.61667,15401
East Chattanooga,35.06535,-85.24912,154024
Chełmża,53.18463,18.60466,15403
Carate Brianza,45.67149,9.23576,15404
San Cristóbal,18.41667,-70.1,154040
Burrel,41.61028,20.00889,15405
Parvatsar,26.88604,74.76602,15405
Massakory,12.996,15.72927,15406
Borovskiy,57.04096,65.72018,15406
Peoria,33.5806,-112.23738,154065
Santa Cruz,14.9127,120.56659,15408
Tottori,35.5,134.23333,154098
Larkhall,55.73333,-3.96667,15410
Pont-à-Mousson,48.90786,6.0589,15411
Avocado Heights,34.03612,-117.99118,15411
Viranşehir,37.22349,39.75519,154163
Siemiatycze,52.42719,22.86231,15421
Tīrthahalli,13.68835,75.24548,15422
Kovrov,56.35722,41.31917,154224
Kalugumalai,9.14726,77.70424,15423
Kenmore,42.96589,-78.87004,15423
Pasarkemis,-6.17028,106.53028,154234
Djelfa,34.67279,3.263,154265
Great Falls,38.99817,-77.28832,15427
Jamestown,46.91054,-98.70844,15427
Mayma,52.01577,85.90963,15428
Kalghatgi,15.18315,74.97099,15428
Harare,-17.82772,31.05337,1542813
Mandalgovi,45.7625,106.27083,15430
Bilderstoeckchen,50.96983,6.92997,15430
Cape Coral,26.56285,-81.94953,154305
Mountain Top,40.10677,-75.95272,15431
São Miguel do Iguaçu,-25.34806,-54.23778,15434
Seen (Kreis 3),47.47646,8.76996,15434
Saint Andrews,56.33871,-2.79902,15435
Moskovskiy,55.59911,37.35495,15435
Ambato,-1.24908,-78.61675,154369
Erskine,55.9005,-4.45028,15437
Vilalba,43.3,-7.68333,15437
Capua,41.10519,14.21269,15438
Herisau,47.38615,9.27916,15438
Bené Beraq,32.08074,34.8338,154400
Zhaodong,46.06771,125.98263,154406
Ado Odo,6.6,2.93333,15442
Gandajika,-6.74504,23.95328,154425
Albal,39.4,-0.41667,15443
Elkton,39.60678,-75.83327,15443
Santa Barbara,16.0009,120.4023,15445
Sonzacate,13.73417,-89.71472,15446
Clive,41.60304,-93.72411,15447
Leshan,29.56227,103.76386,154477
Kuala Lipis,4.1842,102.0468,15448
Bangor,53.22647,-4.13459,15449
Sulphur Springs,33.13845,-95.60107,15449
Leixlip,53.36583,-6.49556,15452
La Serena,-29.90453,-71.24894,154521
Angermünde,53.01499,13.99924,15453
Buffalo,45.17191,-93.87469,15453
Ludhiāna,30.90015,75.85229,1545368
Kosigi,15.85572,77.24475,15455
Griffith,-34.28853,146.05093,15455
Río Bueno,-40.33494,-72.95564,15456
Oxford,51.75222,-1.25596,154566
Illzach,47.78088,7.34662,15457
Vazante,-17.98694,-46.90778,15459
Boké,10.93217,-14.29055,15460
Kaukauna,44.27804,-88.27205,15462
Nīlgiri,21.46235,86.76794,15462
Aşkale,39.92083,40.695,15462
Butembo,0.14164,29.29117,154621
Jequitinhonha,-16.43389,-41.00333,15463
Salem,44.9429,-123.0351,154637
Prado,-17.34111,-39.22083,15464
San Sebastián el Grande,20.51667,-103.41667,15465
Carrières-sous-Poissy,48.94952,2.04068,15465
Batavia,42.99812,-78.18752,15465
Lyubertsy,55.67719,37.89322,154650
Mahajanga,-15.71667,46.31667,154657
Lille,51.24197,4.82313,15466
Malnate,45.79377,8.88104,15466
Donskoye,45.45518,41.97411,15469
San Juan de Dios,9.8773,-84.0847,15469
Chai Nat,15.18636,100.12353,15469
Middelburg,-25.77507,29.46482,154706
Bunawan,8.16722,125.99083,15471
Isfahan,32.65246,51.67462,1547164
Udaipura,23.07434,78.51108,15473
Martha Lake,47.85093,-122.2393,15473
Vāda,19.65347,73.14811,15474
Tergnier,49.65607,3.30107,15475
Pembroke Pines,26.00315,-80.22394,154750
Blackwood,51.66778,-3.2075,15476
Setauket-East Setauket,40.93064,-73.10179,15477
Guangshui,31.6199,113.9978,154771
Minas de Marcona,-15.21194,-75.11028,15478
Kotapārh,19.14256,82.32536,15479
Bilicenii Vechi,47.6558,28.04734,15479
Holalkere,14.04262,76.18424,15480
Mastic,40.80204,-72.84094,15481
Farmingville,40.83121,-73.02955,15481
Strunino,56.37328,38.58321,15483
Las Delicias,32.40889,-116.94361,15486
Aleksandrovsk,59.1581,57.5695,15486
Niederkrüchten,51.2,6.21667,15487
Frattaminore,40.9558,14.27201,15487
Nova Pazova,44.94366,20.21931,15488
Boroon,8.18278,124.17701,15490
Lithia Springs,33.794,-84.66049,15491
Huanuni,-18.289,-66.83583,15492
Kampung Ayer Molek,2.2139,102.3278,15497
Länsi-Turunmaa,60.29972,22.3004,15498
Plainfield,41.67649,-71.91507,15498
Teignmouth,50.54768,-3.49637,15498
Beipiao,41.79194,120.77917,154999
Stowbtsy,53.4785,26.7434,15500
Ban Houakhoua,20.2467,100.45401,15500
La Cruz,23.92126,-106.8925,15500
Clayton,-37.91731,145.13041,15500
Tetuán de las Victorias,40.46667,-3.71667,155000
Lianghu,29.99152,120.89845,155000
Aarau,47.39254,8.04422,15501
Hayange,49.33428,6.05267,15501
Kānchipuram,12.83515,79.70006,155029
Ottweiler,49.40133,7.16424,15503
Shushary,59.80917,30.38167,15503
Schroeder,-26.4125,-49.07306,15505
Avenal,36.00412,-120.12903,15505
Bad Bentheim,52.31814,7.16343,15508
East Riverdale,38.96206,-76.92192,15509
Montornès del Vallès,41.53333,2.26667,15509
Sant Carles de la Ràpita,40.61667,0.6,15511
Usagara,-2.68333,33,15514
Diksmuide,51.03248,2.86384,15515
Makuyuni,-4.73333,38.1,15516
Itajuípe,-14.67806,-39.375,15516
Och’amch’ire,42.71232,41.46863,15517
Lebanon,44.53651,-122.90703,15518
Rio Formoso,-8.66877,-35.16277,15518
Wombwell,53.52189,-1.39698,15518
Lognes,48.83541,2.62998,15519
Leteri,24.06067,77.40667,15519
Zürich (Kreis 8),47.3548,8.56097,15519
Lara,-38.02388,144.40617,15520
Port Louis,-20.16194,57.49889,155226
Highland,40.44995,-111.77021,15523
Kyonju,35.84278,129.21167,155237
Hayvoron,48.33958,29.86791,15526
Eden,36.48847,-79.7667,15527
Carlet,39.23333,-0.51667,15527
Thap Khlo,16.16003,100.59656,15528
Łęczyca,52.05959,19.19972,15528
Razumnoye,50.53439,36.68462,15529
Santa María de Jesús,14.51833,-90.72667,15529
Çağlayancerit,37.74959,37.29622,15530
Mizil,45.01667,26.45,15532
Satipo,-11.25222,-74.63861,15532
Monte Plata,18.807,-69.78399,15532
Alum Rock,37.36605,-121.82718,15536
El Bolsón,-41.96051,-71.53336,15537
Venceremos,20.55083,-100.39806,15538
Anchau,10.96245,8.39233,15538
Bilsanda,28.24246,79.95182,15538
Guyong,14.8361,120.97844,155391
Bukuru,9.79399,8.86397,15540
Hautmont,50.25077,3.92143,15540
Beacon,41.50482,-73.96958,15541
Chiari,45.53763,9.92699,15541
Santiago del Torno,-17.98674,-63.38118,15543
Sulūq,31.66818,20.25205,15543
Port Glasgow,55.93464,-4.6895,15543
Clayton,-37.91667,145.11667,15543
Swindon,51.55797,-1.78116,155432
Manhumirim,-20.35778,-41.95806,15544
Oroville,39.51394,-121.55776,15546
Montalvo,-1.79008,-79.28759,15547
Aurora,41.31755,-81.34539,15548
Nahorkatiya,27.28912,95.3418,15548
Ilhéus,-14.79364,-39.03949,155499
La Grange,41.80503,-87.86923,15550
Belém,-6.69167,-35.53333,15550
Magog,45.26678,-72.14909,15550
Pembroke,45.81681,-77.11616,15551
Peer,51.1303,5.45952,15551
Kisi,9.08297,3.85196,155510
Pimentel,-6.83667,-79.93417,15552
Balma,43.61111,1.49944,15553
Néa Mákri,38.08733,23.97642,15554
Viana do Castelo,41.69323,-8.83287,15555
Conde,-11.81361,-37.61056,15557
Sleaford,52.99826,-0.40941,15558
Porto San Giorgio,43.17784,13.79411,15558
Zemun,44.84306,20.40111,155591
Leduc,53.26682,-113.55201,15561
Salamanca,40.96882,-5.66388,155619
Earlsfield,51.4439,-0.1854,15562
Prakhon Chai,14.60592,103.12081,15564
Mount Pleasant,33.15679,-94.96827,15564
Ibeto,10.48536,5.14501,15565
Williamstown,39.68623,-74.99517,15567
Diadi,16.7262,121.3589,15567
Hude,53.10766,8.46322,15567
La Palma,33.8464,-118.04673,15568
Hanumāngarh,29.58182,74.32938,155687
Seogwipo,33.25333,126.56181,155691
Dom Pedro,-5.03749,-44.43857,15570
Mercedes,26.1498,-97.91361,15570
Correggio,44.76737,10.78345,15571
Itajaí,-26.90778,-48.66194,155716
Chānasma,23.71472,72.11279,15572
Nisko,50.51987,22.13968,15573
Esparza,9.99447,-84.66466,15575
Mlalo,-4.93333,38.93333,15576
Yichun,47.72143,128.87529,155762
Audincourt,47.48327,6.85341,15577
Tema,5.6698,-0.01657,155782
Puerto Esperanza,-26.01517,-54.67306,15579
Dan Khun Thot,15.2085,101.77138,15580
Talacogon,8.45611,125.78417,15581
Prosek,50.11525,14.50685,15581
Portalegre,39.29379,-7.43122,15581
Kumagaya,36.13497,139.39004,155813
Campos Belos,-13.03667,-46.77167,15582
Kota,22.29344,82.02353,15582
Moe,-38.17828,146.26099,15582
Mayenne,48.3,-0.61667,15583
Iwanai,42.97444,140.50889,15584
Calumpang,14.6228,121.0897,15589
Lakhnādon,22.60058,79.60135,15589
Loncoche,-39.36708,-72.63087,15590
Ţūbās,32.32091,35.36989,15591
Elkridge,39.21261,-76.71358,15593
Stuart,27.19755,-80.25283,15593
Rolante,-29.65056,-50.57583,15594
Désarmes,18.9916,-72.38528,15594
Nova Era,-19.75,-43.0375,15595
Nikel’,69.41285,30.22198,15596
Malabo,3.75,8.78333,155963
Katsuta,36.38333,140.53333,155968
Beylagan,39.77556,47.61861,15599
Baykal’sk,51.5151,104.1402,15600
Nagareyama,35.8563,139.90266,156000
Cordeiro,-22.02861,-42.36083,15601
Ikalamavony,-21.15,46.58333,15601
Marbach am Neckar,48.93964,9.25995,15604
Ubatã,-14.21389,-39.52278,15604
Saint-Basile-le-Grand,45.53338,-73.28246,15605
San Javier,-30.57781,-59.9317,15606
Baberu,25.54711,80.70443,15607
Pa Sang,18.52617,98.93936,15607
Bitterfeld-Wolfen,51.62355,12.32395,15608
Asunción Mita,14.33083,-89.71083,15608
Dedza,-14.3779,34.33322,15608
Keetmanshoop,-26.58333,18.13333,15608
Berck,50.4,1.6,15609
Nochistlán,21.36545,-102.84659,15613
Lampang,18.29232,99.49277,156139
Shorewood,41.52003,-88.20173,15615
Pirkkala,61.46125,23.63228,15615
Karabanovo,56.31667,38.7,15615
Bari Sādri,24.41339,74.47331,15616
Bang Mun Nak,16.02781,100.37917,15616
Zlaté Moravce,48.38553,18.40063,15618
Khūtār,28.20307,80.27046,15618
Eugene,44.05207,-123.08675,156185
Los Alcázares,37.74425,-0.85041,15619
Odenthal,51.03333,7.11667,15619
Kataysk,56.289,62.5841,15619
Carcarañá,-32.85679,-61.15331,15619
Blytheville,35.9273,-89.91898,15620
Galaosiyo,39.85778,64.44833,15620
Er Reina,32.72339,35.31622,15621
Batu Pahat,1.8548,102.9325,156236
Ruse,43.85639,25.97083,156238
Eberbach,49.4668,8.99016,15624
Santiago Tulantepec,20.0357,-98.35639,15625
Spenge,52.14021,8.48475,15625
Karabash,55.4808,60.2157,15630
Madukkūr,10.48134,79.39681,15631
Abuyog,10.747,125.0107,15632
Sarāi Sidhu,30.59489,71.96977,15632
Sim,54.993,57.6982,15632
San Narciso,15.0143,120.0803,15636
Uzhur,55.31246,89.83301,15637
Ustroń,49.72153,18.80198,15637
Bryn Mawr-Skyway,47.4943,-122.24092,15645
Novyy Buh,47.69308,32.5216,15646
Simmerath,50.6,6.3,15646
Riegelsberg,49.3,6.93333,15647
Outreau,50.70535,1.5897,15648
Lilydale,-37.75,145.35,15649
Calhoun,34.50259,-84.95105,15650
Siderno,38.26993,16.29607,15651
Bay Village,41.48477,-81.92208,15651
Tarancón,40.00851,-3.00731,15651
Hale,51.22946,-0.78908,15657
Yutz,49.35571,6.1926,15659
Gradačac,44.87851,18.42764,15659
Königstein im Taunus,50.17943,8.47132,15661
Manthani,18.65087,79.66501,15661
Peniche,39.3558,-9.38112,15662
Saubara,-12.7375,-38.76861,15662
Lancaster,34.69804,-118.13674,156633
Les Herbiers,46.86667,-1.01667,15664
Pécs,46.08333,18.23333,156649
Virovitica,45.83194,17.38389,15665
Gloversville,43.05285,-74.34375,15665
Srivaikuntam,8.62931,77.91281,15665
Gornyak,50.99417,81.46611,15668
Yorkton,51.2167,-102.46766,15669
Harnoli,32.27917,71.55389,15669
Aguazul,5.17282,-72.54706,15669
Sihanoukville,10.60932,103.52958,156691
Osogbo,7.77104,4.55698,156694
Bagar,28.1874,75.5005,15670
Kodinsk,58.68806,99.18444,15670
Ansfelden,47.965,13.04944,15673
Souk Ahras,36.28639,7.95111,156745
Berck-Plage,50.40704,1.56446,15675
Talladega,33.43594,-86.1058,15676
Ezine,39.78561,26.34083,15677
União,-4.58583,-42.86417,15677
Zerbst,51.9662,12.08517,15680
Santiago Tuxtla,18.46576,-95.3006,15681
Matsue-shi,35.47222,133.05056,156811
Hitachi-Naka,36.39659,140.53479,156811
Westonaria,-26.31905,27.6486,156831
Anicuns,-16.46111,-49.96167,15684
Camrose,53.01684,-112.83525,15686
Vienna,38.90122,-77.26526,15687
Neelankarai,12.9495,80.2592,15688
Palmarito Tochapán,18.89891,-97.63892,15690
Shikārpur,27.95706,68.63789,156901
Toledo,10.3773,123.6386,156916
Boisar,19.80362,72.75598,15692
Sinanju,39.59806,125.60972,15693
Damascus,33.5102,36.29128,1569394
Haubourdin,50.60826,2.99143,15694
Crépy-en-Valois,49.23359,2.88807,15694
Moshi,-3.35,37.33333,156959
Itatinga,-23.10167,-48.61583,15696
Bílina Kyselka,50.55,13.76667,15697
Belén de Umbría,5.20087,-75.86865,15698
Janakkala,60.9,24.6,15698
Diamantino,-14.40861,-56.44611,15699
Shchuchin,53.6014,24.7465,15700
Venëv,54.35533,38.26843,15700
Divnoye,45.90889,43.35472,15700
Tiraspolul Nou,46.84274,29.62909,157000
Kamachumu,-1.61861,31.62,15701
Conisbrough,53.48188,-1.23214,15703
Nanpiao,41.09822,120.74792,157044
Johnstone,55.82906,-4.51605,15705
Meneméni,40.65829,22.89712,15706
Ussuriysk,43.80291,131.94578,157068
Potrerillos,15.23333,-87.96667,15707
Marte,12.36532,13.8293,15707
Āsmār,35.03333,71.35809,15708
Osmaneli,40.35722,30.01417,15708
Baildon,53.84711,-1.78785,15710
Schwechat,48.13333,16.46667,15711
Highland Springs,37.54598,-77.32776,15711
Khatīma,28.92221,79.97015,15714
Pallāvaram,12.96796,80.15025,157145
Soba,10.98133,8.05749,15715
Nova Granada,-20.53389,-49.31417,15715
Brenham,30.16688,-96.39774,15716
Uckfield,50.96948,0.09589,15716
Kinarut,5.8231,116.0466,15716
Benoy,8.98327,16.31991,15717
Perbaungan,3.5679,98.956,157174
Weener,53.16332,7.35052,15718
Zürich (Kreis 10) / Wipkingen,47.39503,8.52529,15718
Lido,45.4105,12.36649,15719
Mont-Saint-Hilaire,45.56678,-73.19915,15720
Rye,40.98065,-73.68374,15720
Şimleu Silvaniei,47.23333,22.8,15721
Ankazobe,-18.31667,47.11667,15722
Waterville,44.55201,-69.63171,15722
Kelheim,48.91725,11.88618,15723
Avon Center,41.45976,-82.01959,15724
Laventille,10.64917,-61.49889,157258
Willow Grove,40.144,-75.11573,15726
Wenceslau Braz,-23.87389,-49.80278,15726
Biggleswade,52.08652,-0.26493,15726
Wendlingen am Neckar,48.67124,9.37632,15728
Gura Humorului,47.55,25.9,15728
Lajinha,-20.15139,-41.62278,15729
Persianovka,47.52972,39.41833,15730
Bad Essen,52.31667,8.33333,15732
Swanscombe,51.44713,0.31028,15732
Svetogorsk,61.11213,28.86321,15733
Dixon,41.83892,-89.47955,15733
Choszczno,53.16905,15.42054,15733
Khairāgarh,21.41879,80.98012,15734
Kankauli,16.26609,73.71217,15735
Phnom Penh,11.56245,104.91601,1573544
San Blas,40.43893,-3.61537,157367
Dahlem,52.4581,13.28702,15737
Garforth,53.79173,-1.38067,15737
Bílina,50.54854,13.77535,15738
Bhudgaon,16.90742,74.59954,15738
Ujar,40.51902,47.65423,15741
Paraguaçu,-21.54722,-45.7375,15741
General Pinedo,-27.31667,-61.28333,15741
Canteleu,49.44065,1.02459,15742
Wang Saphung,17.30097,101.7685,15747
Wittenheim,47.8078,7.33702,15747
Nuth,50.9175,5.88611,15748
Maitland,28.62778,-81.36312,15751
Gatesville,31.43516,-97.74391,15751
Uvalde,29.20968,-99.78617,15751
Sierre,46.29192,7.53559,15752
Tahlequah,35.91537,-94.96996,15753
Salsomaggiore Terme,44.81592,9.98637,15754
Roanoke Rapids,36.46154,-77.65415,15754
Banderilla,19.58893,-96.93727,15757
Gračanica,44.70307,18.3101,15758
Pennāgaram,12.1345,77.89514,15758
La Vista,41.18389,-96.03113,15758
Oconomowoc,43.11167,-88.49927,15759
Santa Lucía,10.3242,-74.96017,15760
Artsyz,45.99194,29.41824,15761
Oderzo,45.7862,12.49547,15764
Staphorst,52.645,6.21111,15765
Preetz,54.2354,10.27795,15768
Bebington,53.35,-3.01667,15768
Menzel Abderhaman,37.23737,9.86313,15769
El Tejar,14.64778,-90.79278,15770
Kapit,2.01667,112.93333,15771
Ţalkhā,31.0539,31.37787,157737
Yoro,15.1375,-87.12778,15774
Vitória do Mearim,-3.46222,-44.87056,15775
Anacortes,48.5126,-122.61267,15778
Dumra,26.56708,85.5204,15778
Chuhar Jamāli,24.38953,67.99234,15781
Rakovski,42.3,24.96667,15782
San Giovanni in Persiceto,44.63838,11.18419,15783
Longmeadow,42.0501,-72.58287,15784
Milanówek,52.11879,20.67155,15784
Greater Sudbury,46.49,-80.99001,157857
Lourdes,43.1,-0.05,15786
Jagalūr,14.51976,76.33892,15787
Jodiya Bandar,22.71667,70.28333,15788
Admiralteisky,59.90839,30.28484,157897
Ladário,-19.00472,-57.60167,15790
Sinnai,39.30286,9.20283,15791
Chenôve,47.29323,5.00457,15791
Sunggal,3.5765,98.6151,157914
Lebanon,40.04837,-86.46917,15792
Natchez,31.56044,-91.40317,15792
Donna,26.17035,-98.05195,15798
Sobral,-3.68611,-40.34972,157996
Kallar Kahār,32.78333,72.7,15800
Altotonga,19.76613,-97.24514,15800
Altai,46.37222,96.25833,15800
Melitopol’,46.84891,35.36533,158000
Gol’yanovo,55.82299,37.81306,158000
Hybla Valley,38.74761,-77.08303,15801
Arkalgūd,12.76521,76.05622,15802
Abhayāpuri,26.32255,90.68526,15802
Ashland,42.26121,-71.4634,15802
Baruun-Urt,46.68056,113.27917,15805
Przeworsk,50.05912,22.49408,15805
Gwaram,11.27727,9.88385,15806
Collingwood,44.4834,-80.21638,15809
Riemst,50.80995,5.60131,15809
Boom,51.09242,4.3717,15810
Sant Just Desvern,41.38602,2.07573,15811
Vevey,46.46299,6.84345,15812
Porthcawl,51.47903,-3.70362,15813
Olsberg,51.35613,8.48899,15814
Hoshiārpur,31.53238,75.90799,158142
Sannicandro Garganico,41.83844,15.56535,15815
San Clemente,-13.66667,-76.15,15815
Centro Habana,23.13833,-82.36417,158151
Long Xuyên,10.38639,105.43518,158153
Terrell,32.73596,-96.27526,15816
Kāmākhyānagar,20.93385,85.54489,15818
Falköping,58.17347,13.55068,15821
Kaduna,10.52641,7.43879,1582102
Komsomol’s’ke,49.59701,36.52618,15825
Ichinohe,40.21965,141.28986,15825
Nyborg,55.31274,10.78964,15826
Orai,25.99074,79.45315,158265
Apostolove,47.66003,33.71369,15828
Canby,45.2629,-122.69259,15829
Barreiras,-12.15278,-44.99,158292
Mihona,26.2838,78.98016,15830
Sagalo,12.2,-10.7,15830
Uchāna,29.46856,76.176,15830
Huzhou,30.8703,120.0933,158320
El Achir,36.06386,4.62744,158333
Conceição da Feira,-12.50583,-38.99861,15834
Dunaivtsi,48.88909,26.85636,15836
Tempe Junction,33.41421,-111.94348,158368
Unhel,23.33794,75.55931,15837
Sisauli,29.41386,77.4689,15837
Arzgir,45.37278,44.22056,15838
Rzeszów,50.04132,21.99901,158382
Sunel,24.37065,75.95708,15840
Coronel Vivida,-25.97972,-52.56778,15841
El Estor,15.53333,-89.35,15842
Hoyland Nether,53.5,-1.45,15842
Sanarate,14.795,-90.19222,15843
Madison,40.75982,-74.4171,15845
Maykop,44.60778,40.10583,158451
Malahide,53.45083,-6.15444,15846
Port Washington,40.82566,-73.69819,15846
Baguim do Monte,41.19392,-8.54133,15850
Shāhpur,25.60213,84.40412,15850
Sāmarrā’,34.1959,43.88568,158508
Bruckmühl,47.87859,11.91098,15851
Albufeira,37.08819,-8.2503,15851
les Escaldes,42.50729,1.53414,15853
Guéret,46.16667,1.86667,15853
Beaufort,5.3473,115.7455,15855
Vári,37.8312,23.80809,15855
Grenoble,45.16667,5.71667,158552
Durant,33.99399,-96.37082,15856
Pipraich,26.82799,83.52689,15856
Cuddalore,11.74629,79.76436,158569
Sunnyside,46.32374,-120.00865,15858
Conde,-7.25972,-34.9075,15859
Bayambang,15.8127,120.4557,15859
Pasuruan,-7.6453,112.9075,158600
Letňany,50.13333,14.51667,15862
Floral Park,40.72371,-73.70485,15863
Ajra,16.11601,74.21097,15864
Yellowknife,62.456,-114.35255,15865
Wang Noi,14.22689,100.7155,15865
Petushki,55.92639,39.46104,15866
Jaigaon,26.84766,89.37558,158664
Kamar Mushāni,32.84389,71.36694,15867
Čakovec,46.38444,16.43389,15867
Pokrov,55.91797,39.17242,15867
Boussé,12.6576,-1.89288,15868
Bressanone,46.71503,11.65598,15868
Aldine,29.93245,-95.38021,15869
Kannod,22.66683,76.73787,15870
Myrtle Grove,30.42103,-87.30747,15870
Rehlingen-Siersburg,49.36667,6.68333,15871
Hendrina,-26.15881,29.71528,15871
Nijmegen,51.8425,5.85278,158732
Göd,47.68324,19.13417,15874
Colima,9.95091,-84.08503,15875
Sartell,45.62163,-94.20694,15876
Pearl River,41.05899,-74.02181,15876
Boissy-Saint-Léger,48.75149,2.51163,15877
Keynsham,51.41387,-2.4978,15879
Dolores,-33.53009,-58.21701,15880
La Carolina,38.27559,-3.61535,15880
Valença do Piauí,-6.4075,-41.74556,15881
Cerveteri,41.9908,12.09082,15883
Mankayan,16.8632,120.7829,15886
Vadamadurai,10.44026,78.09999,15886
Satuba,-9.56333,-35.82444,15887
Modena,44.64783,10.92539,158886
Busembatia,0.76972,33.61306,15889
Itaporanga,-7.30444,-38.15028,15890
Barentu,15.10582,37.59067,15891
Brie-Comte-Robert,48.68333,2.61667,15892
Pombos,-8.14139,-35.39583,15894
Varnsdorf,50.91154,14.61824,15895
Villafranca di Verona,45.35807,10.84939,15895
Bradley,41.14198,-87.86115,15895
Ikedachō,34.02849,133.80616,15895
Isabela,10.2048,122.9888,15897
Osan,37.15222,127.07056,158978
Sava,40.40203,17.55267,15898
Eslöv,55.83928,13.30393,15898
Villers-lès-Nancy,48.67103,6.15083,15899
Embalse,-32.18,-64.41809,15900
Khoroshëvo-Mnevniki,55.78363,37.47137,159000
Bibirevo,55.88333,37.6,159000
El Retén,10.61135,-74.26824,15901
Melenki,55.3343,41.6295,15902
Puebla,19.04334,-98.20193,1590256
Albemarle,35.35014,-80.20006,15903
Saint-Égrève,45.23333,5.68333,15904
Xinyang,32.12278,114.06556,1590668
Rura,26.487,79.90243,15908
Unterkrozingen,47.91933,7.69045,15908
Freilassing,47.84085,12.98114,15909
Pont-à-Celles,50.50518,4.36887,15909
Lloydminster,53.28346,-110.00157,15910
Pestovo,58.59382,35.80244,15910
Tecámac de Felipe Villanueva,19.71306,-98.96833,15911
Garwolin,51.89747,21.61466,15912
Crawfordsville,40.04115,-86.87445,15915
Trento,8.04583,126.06361,15916
Ebersbach an der Fils,48.716,9.5236,15919
Senirkent,38.10444,30.54861,15919
Goodlettsville,36.32311,-86.71333,15921
Ratekau,53.95,10.73333,15921
Southchase,28.39306,-81.3834,15921
Oldenburg,53.14118,8.21467,159218
Carthage,36.86108,10.33161,15922
Parole,38.97956,-76.53052,15922
Vincent,34.50055,-118.11646,15922
Baskil,38.56791,38.82382,15922
Qandala,11.47197,49.87282,15923
Olecko,54.03374,22.50704,15923
Young,-32.68333,-57.63333,15924
Burlington,39.02756,-84.72411,15926
Tarija,-21.53549,-64.72956,159269
Grenchen,47.1921,7.39586,15927
Solin,43.5432,16.49314,15927
San Miguel del Padrón,23.06639,-82.29472,159273
Wilkinsburg,40.44174,-79.88199,15930
Bodaybo,57.85056,114.19333,15933
Merke,42.86773,73.17623,15934
Vasa,22.66079,72.75519,15934
Port-de-Bouc,43.40657,4.9809,15934
Udalguri,26.75367,92.10215,15935
Iperu,6.91002,3.66557,15935
Al Baqāliţah,35.61739,10.99466,15937
Valparaíso,-21.22778,-50.86833,15938
Château-Thierry,49.05,3.4,15938
Lawang,-7.8353,112.6947,159380
Zhicheng,30.29556,111.50472,159383
Clayton,38.64255,-90.32373,15939
Gentilly,48.81294,2.3417,15939
Kalundborg,55.67954,11.08864,15939
Harenkarspel,52.73416,4.77682,15941
Puurs,51.07409,4.28844,15944
Fayetteville,33.44873,-84.45493,15945
Easton,38.77428,-76.07633,15945
Middleburg Heights,41.36144,-81.81291,15946
Kingsland,30.79996,-81.68983,15946
Candiac,45.38338,-73.51587,15947
Four Corners,44.9279,-122.98371,15947
Bawshar,23.55563,58.3989,159487
Hettstedt,51.6503,11.51146,15949
Lerum,57.77051,12.26904,15949
Springfield,37.21533,-93.29824,159498
Konjic,43.65126,17.96082,15950
Athlone,53.43333,-7.95,15951
Laconia,43.52785,-71.47035,15951
Uslar,51.6569,9.63501,15951
Fort Erie,42.90012,-78.93286,15953
Thākurganj,26.42742,88.13112,15953
Indri,29.87999,77.05972,15954
Nässjö,57.65307,14.69676,15954
Kitui,-1.36696,38.01055,15954
White River,-25.33177,31.01166,15954
Corvera de Asturias,43.51062,-5.8691,15955
Buri,-23.7975,-48.59278,15958
Ban Mo,14.61544,100.72731,15959
Bhīkhi,30.06114,75.53433,15961
Troutdale,45.53929,-122.38731,15962
Laurinburg,34.77405,-79.46282,15962
Cordenons,45.9836,12.70038,15962
Hövelhof,51.81667,8.65,15962
Blankenburg,51.79025,10.95509,15963
Tepoztlán,18.98603,-99.09914,15963
Bayeux,49.27732,-0.7039,15963
Pecan Grove,29.62607,-95.73162,15963
Gurun,5.81717,100.47381,15964
Paracho de Verduzco,19.64745,-102.04897,15965
Zola Predosa,44.48967,11.21831,15965
Walnut Park,33.96807,-118.22507,15966
Gien,47.69332,2.63094,15966
Shahrak,34.10737,64.3052,15967
West Pennant,-33.7457,151.04764,15967
Coos Bay,43.3665,-124.21789,15967
Ashikaga,36.33333,139.45,159671
Sangre Grande,10.58333,-61.11667,15968
Forio,40.70876,13.8649,15969
Sinjhoro,26.03031,68.80898,15970
Tsotsin-Yurt,43.24206,46.00013,15970
Ipaba,-19.41361,-42.41944,15970
Progreso,-34.665,-56.21944,15973
Horgen,47.25579,8.60027,15973
Skudai,1.53741,103.65779,159733
Kālābāgh,32.965,71.55697,15976
Vīrarājendrapet,12.19583,75.80355,15976
Westervoort,51.95583,5.97222,15976
Biliri,9.86472,11.22528,15976
Hājo,26.2452,91.52525,15977
Sodhra,32.46162,74.18234,15977
Ziguinchor,12.58333,-16.27194,159778
Manaus,-3.10194,-60.025,1598210
Beckingen,49.4,6.7,15983
Issoire,45.55,3.25,15984
Abington,42.10482,-70.94532,15985
Akwanga,8.91077,8.40655,15985
Brad,46.13333,22.78333,15988
Petawawa,45.89452,-77.28007,15988
Salavat,53.38365,55.90773,159893
Pasaia,43.3253,-1.92707,15990
Püspökladány,47.31667,21.11667,15990
Tadley,51.35045,-1.1285,15990
Horodok,49.78465,23.64806,15993
Oyama,36.3,139.8,159936
Fléron,50.61516,5.68062,15994
Great Bend,38.36446,-98.76481,15995
İskenderun,36.58718,36.17347,159965
Corvera,43.26697,-3.9471,15997
Country Walk,25.63399,-80.43228,15997
San Rafael Tlanalapan,19.29167,-98.46806,15998
Bhopal,23.25469,77.40289,1599914
Patna,25.60222,85.11936,1599920
Cherry Hill,38.56984,-77.26693,16000
Alarobia,-18.96667,47.73333,16000
Hoge Vucht,51.60794,4.7915,16000
Venilale,-8.64306,126.37833,16000
Kilwinning,55.65333,-4.70666,16000
Stará Ľubovňa,49.29859,20.6862,16000
Baucau,-8.47111,126.45833,16000
Maintirano,-18.06354,44.02951,16000
Lemont,41.67364,-88.00173,16000
Sint-Kruis,51.21399,3.24949,16000
Tongging,2.8985,98.5231,16000
Oschatz,51.30001,13.10984,16000
Tullinge,59.2,17.9,16000
Ar Ruways,24.11028,52.73056,16000
Sarigerme,36.71549,28.70436,16000
Ankazondandy,-18.7,47.78333,16000
