name,latitude,longitude,population
Shanghai,31.22222,121.45806,22315474
Buenos Aires,-34.61315,-58.37723,13076300
Mumbai,19.07283,72.88261,12691836
Mexico City,19.42847,-99.12766,12294193
Beijing,39.9075,116.39723,11716620
Karachi,24.9056,67.0822,11624219
İstanbul,41.01384,28.94966,11174257
Tianjin,39.14222,117.17667,11090314
Guangzhou,23.11667,113.25,11071424
Delhi,28.65381,77.22897,10927986
Manila,14.6042,120.9822,10444527
Moscow,55.75222,37.61556,10381222
Shenzhen,22.54554,114.0683,10358381
Dhaka,23.7104,90.40744,10356500
Seoul,37.566,126.9784,10349312
São Paulo,-23.5475,-46.63611,10021295
Wuhan,30.58333,114.26667,9785388
Lagos,6.45407,3.39467,9000000
Jakarta,-6.21462,106.84513,8540121
Tokyo,35.6895,139.69171,8336599
New York City,40.71427,-74.00597,8175133
Dongguan,23.04889,113.74472,8000000
Taipei,25.04776,121.53185,7871900
Kinshasa,-4.32758,15.31357,7785965
Lima,-12.04318,-77.02824,7737002
Cairo,30.06263,31.24967,7734614
Bogotá,4.60971,-74.08175,7674366
London,51.50853,-0.12574,7556900
City of London,51.51279,-0.09184,7556900
Chongqing,29.56278,106.55278,7457600
Chengdu,30.66667,104.06667,7415590
Nanjing,32.06167,118.77778,7165292
Tehrān,35.69439,51.42151,7153309
Nanchong,30.79508,106.08473,7150000
Hong Kong,22.28552,114.15769,7012738
Xi’an,34.25833,108.92861,6501190
Lahore,31.54972,74.34361,6310888
Shenyang,41.79222,123.43278,6255921
Hangzhou,30.29365,120.16142,6241971
Rio de Janeiro,-22.90278,-43.2075,6023699
Harbin,45.75,126.65,5878939
Baghdad,33.34058,44.40088,5672513
Tai’an,36.18528,117.12,5499000
Suzhou,31.30408,120.59538,5345961
Shantou,23.36814,116.71479,5329024
Bangkok,13.75398,100.50144,5104476
Bangalore,12.97194,77.59369,5104047
Saint Petersburg,59.93863,30.31413,5028000
Santiago,-33.45694,-70.64827,4837295
Kolkata,22.56263,88.36304,4631392
Sydney,-33.86785,151.20732,4627345
Yangon,16.80528,96.15611,4477638
Jinan,36.66833,116.99722,4335989
Chennai,13.08784,80.27847,4328063
Zhengzhou,34.75778,113.64861,4253913
Melbourne,-37.814,144.96332,4246375
Riyadh,24.68773,46.72185,4205961
Changchun,43.88,125.32278,4193073
Dalian,38.91222,121.60222,4087733
Chittagong,22.3384,91.83168,3920222
Kunming,25.03889,102.71833,3855346
Alexandria,31.21564,29.95527,3811516
Los Angeles,34.05223,-118.24368,3792621
Ahmedabad,23.02579,72.58727,3719710
Qingdao,36.06605,120.36939,3718835
Busan,35.10278,129.04028,3678555
Abidjan,5.30966,-4.01266,3677115
Kano,12.00012,8.51672,3626068
Foshan,23.02677,113.13148,3600000
Hyderabad,17.38405,78.45636,3597816
Puyang,29.45679,119.88872,3590000
Yokohama,35.44778,139.6425,3574443
Ibadan,7.37756,3.90591,3565108
Singapore,1.28967,103.85007,3547809
Wuxi,31.56887,120.28857,3543719
Xiamen,24.47979,118.08187,3531347
Ankara,39.91987,32.85427,3517182
Tianshui,34.57952,105.74238,3500000
Ningbo,29.87819,121.54945,3491597
Ho Chi Minh City,10.82302,106.62965,3467331
Shiyan,32.6475,110.77806,3460000
Cape Town,-33.92584,18.42322,3433441
Taiyuan,37.86944,112.56028,3426519
Berlin,52.52437,13.41053,3426354
Tangshan,39.63333,118.18333,3372102
Hefei,31.86389,117.28083,3310268
Montréal,45.50884,-73.58781,3268513
Madrid,40.4165,-3.70256,3255944
Pyongyang,39.03385,125.75432,3222000
Casablanca,33.58831,-7.61138,3144909
Zibo,36.79056,118.06333,3129228
Zhongshan,21.31992,110.5723,3121275
Durban,-29.8579,31.0292,3120282
Changsha,28.19874,112.97087,3093980
Kabul,34.52813,69.17233,3043532
Ürümqi,43.80096,87.60046,3029372
Caracas,10.48801,-66.87919,3000000
Pune,18.51957,73.85535,2935744
Sūrat,21.19594,72.83023,2894504
Jeddah,21.54238,39.19797,2867446
Shijiazhuang,38.04139,114.47861,2834942
Kānpur,26.4478,80.34627,2823249
Kiev,50.45466,30.5238,2797553
Luanda,-8.83682,13.23432,2776168
Quezon City,14.6488,121.0509,2761720
Addis Ababa,9.02497,38.74689,2757729
Nairobi,-1.28333,36.81667,2750547
Salvador,-12.97111,-38.51083,2711840
Jaipur,26.91962,75.78781,2711758
Dar es Salaam,-6.82349,39.26951,2698652
Chicago,41.85003,-87.65005,2695598
Lanzhou,36.05701,103.83987,2628426
Incheon,37.45646,126.70515,2628000
Yunfu,22.92833,112.03954,2612800
Toronto,43.70011,-79.4163,2600000
Al Başrah,30.53302,47.79747,2600000
Navi Mumbai,19.03681,73.01582,2600000
Ōsaka-shi,34.69374,135.50218,2592413
Mogadishu,2.03711,45.34375,2587183
Daegu,35.87028,128.59111,2566540
Faisalābād,31.41667,73.08333,2506595
İzmir,38.41273,27.13838,2500603
Dakar,14.6937,-17.44406,2476400
Lucknow,26.83928,80.92313,2472011
Al Jīzah,30.00808,31.21093,2443203
Fortaleza,-3.71722,-38.54306,2400000
Cali,3.43722,-76.5225,2392877
Surabaya,-7.24917,112.75083,2374658
Belo Horizonte,-19.92083,-43.93778,2373224
Nanchang,28.68333,115.88333,2357839
Grand Dakar,14.71331,-17.45472,2352057
Rome,41.89193,12.51133,2318895
Mashhad,36.31559,59.56796,2307177
Brooklyn,40.6501,-73.94958,2300664
Borough of Queens,40.68149,-73.83652,2272771
Nagpur,21.14631,79.08491,2228018
Maracaibo,10.63167,-71.64056,2225000
Brasília,-15.77972,-47.92972,2207718
Santo Domingo,18.50012,-69.98857,2201941
Nagoya-shi,35.18147,136.90641,2191279
Brisbane,-27.46794,153.02809,2189878
Havana,23.13302,-82.38304,2163824
Paris,48.85341,2.3488,2138551
Houston,29.76328,-95.36327,2099451
Al Mawşil al Jadīdah,36.33306,43.1049,2065597
Johannesburg,-26.20227,28.04363,2026469
Kowloon,22.31667,114.18333,2019533
Al Başrah al Qadīmah,30.50316,47.81507,2015483
Almaty,43.25654,76.92848,2000900
Medellín,6.25184,-75.56359,1999979
Tashkent,41.26465,69.21627,1978028
Algiers,36.7525,3.04197,1977663
Khartoum,15.55177,32.53241,1974647
Accra,5.55602,-0.1969,1963264
Guayaquil,-2.20584,-79.90795,1952029
Ordos,39.6086,109.78157,1940653
Sanaa,15.35472,44.20667,1937451
Beirut,33.88894,35.49442,1916100
Perth,-31.95224,115.8614,1896548
Sapporo,43.06417,141.34695,1883027
Jilin,43.85083,126.56028,1881977
Bucharest,44.43225,26.10626,1877155
Camayenne,9.535,-13.68778,1871242
Vancouver,49.24966,-123.11934,1837969
Indore,22.71792,75.8333,1837041
Iztapalapa,19.35738,-99.0671,1820888
Ecatepec,19.61725,-99.06601,1806226
Conakry,9.53795,-13.67729,1767200
Maracay,10.24694,-67.59583,1754256
Medan,3.58333,98.66667,1750971
Rawalpindi,33.6007,73.0679,1743101
Minsk,53.9,27.56667,1742124
Budapest,47.49801,19.03991,1741041
Mosul,36.335,43.11889,1739800
Hamburg,53.57532,10.01534,1739117
Curitiba,-25.42778,-49.27306,1718421
Warsaw,52.22977,21.01178,1702139
Bandung,-6.90389,107.61861,1699719
Soweto,-26.26781,27.85849,1695047
Vienna,48.20849,16.37208,1691468
Rabat,34.01325,-6.83255,1655753
Guadalajara,20.66682,-103.39182,1640589
Barcelona,41.38879,2.15899,1621537
Pretoria,-25.74486,28.18783,1619438
Aleppo,36.20124,37.16117,1602264
Patna,25.60222,85.11936,1599920
Bhopal,23.25469,77.40289,1599914
Manaus,-3.10194,-60.025,1598210
Xinyang,32.12278,114.06556,1590668
Puebla,19.04334,-98.20193,1590256
Kaduna,10.52641,7.43879,1582102
Phnom Penh,11.56245,104.91601,1573544
Damascus,33.5102,36.29128,1569394
Isfahan,32.65246,51.67462,1547164
Ludhiāna,30.90015,75.85229,1545368
Harare,-17.82772,31.05337,1542813
Kobe,34.6913,135.183,1528478
Philadelphia,39.95233,-75.16379,1526006
Bekasi,-6.2349,106.9896,1520119
Kaohsiung,22.61626,120.31333,1519711
Ciudad Juárez,31.73333,-106.48333,1512354
Manhattan,40.78343,-73.96625,1487536
Asunción,-25.30066,-57.63591,1482200
Recife,-8.05389,-34.88111,1478098
Daejeon,36.32139,127.41972,1475221
Kumasi,6.68848,-1.62443,1468609
Kota Bharu,6.13328,102.2386,1459994
Kyoto,35.02107,135.75385,1459640
Kuala Lumpur,3.1412,101.68653,1453975
Karaj,35.83266,50.99155,1448075
Phoenix,33.44838,-112.07404,1445632
Kathmandu,27.70169,85.3206,1442271
Palembang,-2.91673,104.7458,1441500
Multān,30.19556,71.47528,1437230
Hanoi,21.0245,105.84117,1431270
Kharkiv,49.98081,36.25272,1430885
Āgra,27.18333,78.01667,1430055
Córdoba,-31.4135,-64.18105,1428214
Tabrīz,38.08,46.2919,1424641
Novosibirsk,55.0415,82.9346,1419007
Gwangju,35.15472,126.91556,1416938
Bursa,40.19266,29.08403,1412701
Vadodara,22.29941,73.20812,1409476
Belém,-1.45583,-48.50444,1407737
Fushun,41.85583,123.92333,1400646
Quito,-0.22985,-78.52495,1399814
Fukuoka-shi,33.60639,130.41806,1392289
Antananarivo,-18.91368,47.53613,1391433
Luoyang,34.68361,112.45361,1390581
Hyderabad,25.39242,68.37366,1386330
The Bronx,40.84985,-73.86641,1385108
Valencia,10.16202,-68.00765,1385083
Gujrānwāla,32.16167,74.18831,1384471
Barranquilla,10.96854,-74.78132,1380425
Guankou,28.15861,113.62709,1380000
Tijuana,32.5027,-117.00371,1376457
Lubumbashi,-11.66089,27.47938,1373770
Porto Alegre,-30.03306,-51.23,1372741
Tangerang,-6.17806,106.63,1372124
Santa Cruz de la Sierra,-17.78629,-63.18117,1364389
Handan,36.60056,114.46778,1358318
Kampala,0.31628,32.58219,1353189
Yekaterinburg,56.8519,60.6122,1349772
Khulna,22.80979,89.56439,1342339
Douala,4.04827,9.70428,1338082
San Antonio,29.42412,-98.49363,1327407
Gorakhpur,29.44768,75.67206,1324570
Mecca,21.42664,39.82563,1323624
Makassar,-5.14,119.4221,1321717
San Diego,32.71533,-117.15726,1307402
Kawasaki,35.52056,139.71722,1306785
South Tangerang,-6.28862,106.71789,1303569
Baotou,40.65222,109.82222,1301768
Medina,24.46861,39.61417,1300000
Yaoundé,3.86667,11.51667,1299369
Bamako,12.65,-8,1297281
Nashik,19.99727,73.79096,1289497
Semarang,-6.9932,110.4203,1288084
Brazzaville,-4.26613,15.28318,1284609
Pimpri,18.62292,73.80696,1284606
Nizhniy Novgorod,56.32867,44.00205,1284164
Amman,31.95522,35.94503,1275857
Budta,7.20417,124.43972,1273715
Belgrade,44.80401,20.46513,1273651
Montevideo,-34.90328,-56.18816,1270737
Lusaka,-15.40669,28.28713,1267440
Kalyān,19.2437,73.13554,1262255
Thāne,19.19704,72.96355,1261517
Munich,48.13743,11.57549,1260391
Stockholm,59.33258,18.0649,1253309
Ra’s Bayrūt,33.9,35.48333,1251739
Shiraz,29.61031,52.53113,1249942
Adana,37.00167,35.32889,1248988
Suwon-si,37.29111,127.00889,1242724
Milano,45.46427,9.18951,1236837
Port-au-Prince,18.53917,-72.335,1234742
Ciudad Nezahualcoyotl,19.40061,-99.01483,1232220
Adelaide,-34.92866,138.59863,1225235
Meerut,28.97155,77.71934,1223184
Nowrangapur,19.23114,82.54826,1220946
Farīdābād,28.41252,77.31977,1220229
Peshawar,34.008,71.57849,1218773
Davao,7.07306,125.61278,1212504
Mandalay,21.97473,96.08359,1208099
Omdurman,15.64453,32.47773,1200000
Santiago de los Caballeros,19.4517,-70.69703,1200000
Yueyang,29.37455,113.09481,1200000
Anshan,41.12361,122.99,1199275
Tongshan,34.18045,117.15707,1199193
Ghāziābād,28.66249,77.43777,1199191
Depok,-6.4,106.81861,1198129
Dallas,32.78306,-96.80667,1197816
Saitama,35.90807,139.65657,1193350
Gustavo A. Madero,19.49016,-99.10978,1193161
Dombivli,19.21667,73.08333,1193000
Maputo,-25.96553,32.58322,1191613
Gustavo A. Madero,22.8694,-98.75886,1185772
Fuzhou,26.06139,119.30611,1179720
Rājkot,22.29161,70.79322,1177362
Rosario,-32.94682,-60.63932,1173533
Guiyang,26.58333,106.71667,1171633
Goiânia,-16.67861,-49.25389,1171195
Guarulhos,-23.46278,-46.53333,1169577
Prague,50.08804,14.42076,1165581
Varanasi,25.31668,83.01041,1164404
Copenhagen,55.67594,12.56553,1153615
Sofia,42.69751,23.32415,1152556
Tripoli,32.87519,13.18746,1150989
Port Harcourt,4.77742,7.0134,1148665
Hiroshima-shi,34.39627,132.45937,1143841
Lijiang,26.86879,100.22072,1137600
Dubai,25.0657,55.17128,1137347
Samara,53.20007,50.15,1134730
Omsk,54.99244,73.36859,1129281
Benin City,6.33815,5.62575,1125058
Monterrey,25.67507,-100.31847,1122874
Malingao,7.16083,124.475,1121974
Baku,40.37767,49.89201,1116513
León,21.13052,-101.671,1114626
Maiduguri,11.84692,13.15712,1112449
Kazan,55.78874,49.12214,1104738
Yerevan,40.18111,44.51361,1093485
Amritsar,31.63661,74.87476,1092450
Ouagadougou,12.36566,-1.53388,1086505
Yono,35.88333,139.63333,1077730
Rostov-na-Donu,47.23135,39.72328,1074482
Allahābād,25.44894,81.83329,1073438
Goyang-si,37.65639,126.835,1073069
Gaziantep,37.05944,37.3825,1065975
Visakhapatnam,17.68009,83.20161,1063178
Sendai-shi,38.26889,140.87195,1063103
Sendai,38.25759,140.8667,1063103
Chelyabinsk,55.15402,61.42915,1062919
Datong,40.09361,113.29139,1052678
Tbilisi,41.69411,44.83368,1049498
Changshu City,31.64615,120.74221,1047700
Taichung,24.1469,120.6839,1040725
Teni,10.01531,77.482,1034724
Xianyang,34.33778,108.70261,1034081
Ufa,54.74306,55.96779,1033338
Dnipropetrovsk,48.45,34.98333,1032822
Seongnam-si,37.43861,127.13778,1031935
Campinas,-22.90556,-47.06083,1031554
Jabalpur,23.16697,79.95006,1030168
Hāora,22.57688,88.31857,1027672
Huainan,32.62639,116.99694,1027655
Donetsk,48.023,37.80224,1024700
Dublin,53.33306,-6.24889,1024027
Calgary,51.05011,-114.08529,1019942
Brussels,50.85045,4.34878,1019022
Aurangabad,19.87757,75.34226,1016441
Volgograd,48.71939,44.50183,1011417
Nova Iguaçu,-22.75917,-43.45111,1002118
Jieyang,23.5418,116.36581,1001985
Odessa,46.47747,30.73262,1001558
Zhu Cheng City,35.99502,119.40259,1000000
Shivaji Nagar,18.53017,73.85263,1000000
Kitakyūshū,33.83333,130.83333,997536
Solāpur,17.67152,75.91044,997281
Baoding,38.85111,115.49028,995652
Guatemala City,14.64072,-90.51327,994938
Benxi,41.28861,123.765,987717
Zapopan,20.72356,-103.38479,987516
Birmingham,52.48142,-1.89983,984333
Perm,58.01046,56.25017,982419
Srinagar,34.08842,74.80298,975857
Zaria,11.11128,7.7227,975153
Managua,12.13282,-86.2504,973087
Port Elizabeth,-33.91799,25.57007,967677
Fès,34.03715,-4.9998,964891
Köln,50.93333,6.95,963395
Ulsan,35.53722,129.31667,962865
Chandigarh,30.73629,76.7884,960787
Coimbatore,11.00555,76.96612,959823
Napoli,40.85631,14.24641,959470
Maceió,-9.66583,-35.73528,954991
Cartagena,10.39972,-75.51444,952024
Changzhou,31.77359,119.95401,949018
Sulţānah,24.49258,39.58572,946697
San Jose,37.33939,-121.89496,945942
Monrovia,6.30054,-10.7969,939524
Kingston,17.99702,-76.79358,937700
Erbil,36.19257,44.01062,932800
Krasnoyarsk,56.01839,92.86717,927200
Nay Pyi Taw,19.745,96.12972,925000
Jodhpur,26.26841,73.00594,921476
Chiba,35.60472,140.12333,919729
São Luís,-2.52972,-44.30278,917237
Madurai,9.91735,78.11962,909908
Sale,34.0531,-6.79846,903485
Huaibei,33.97444,116.79167,903039
Cochabamba,-17.3895,-66.1568,900414
Abobo,5.41613,-4.0159,900000
Abū Ghurayb,33.30563,44.18477,900000
Kaifeng,34.7986,114.30742,900000
Bishkek,42.87,74.59,900000
Qom,34.6401,50.8764,900000
Guwahati,26.1844,91.7458,899094
Aba,5.10658,7.36667,897560
Pingdingshan,33.73847,113.30119,889675
Gwalior,26.22983,78.17337,882458
Qiqihar,47.34088,123.96045,882364
Klang,3.03333,101.45,879867
Mendoza,-32.89084,-68.82717,876884
Konya,37.87135,32.48464,875530
Mbuji-Mayi,-6.13603,23.58979,874761
Vijayawāda,16.51928,80.63049,874587
Pikine,14.76457,-17.39071,874062
Turin,45.07049,7.68682,870456
Mysore,12.29791,76.63925,868313
Wenzhou,27.99942,120.66682,865672
Saratov,51.54056,46.00861,863725
Tegucigalpa,14.0818,-87.20681,850848
Bucheon-si,37.49889,126.78306,850731
Voronezh,51.67204,39.1843,848752
Ranchi,23.34777,85.33856,846454
Naucalpan de Juárez,19.47851,-99.23963,846185
Ulaanbaatar,47.90771,106.88324,844818
Takeo,10.99081,104.78498,843931
Ahvaz,31.31901,48.6842,841145
Arequipa,-16.39889,-71.535,841130
Padang,-0.94924,100.35427,840352
Hubli,15.34776,75.13378,840214
Marrakesh,31.63416,-7.99994,839296
Kampung Baru Subang,3.15,101.53333,833571
Indianapolis,39.76838,-86.15804,829718
Jacksonville,30.33218,-81.65565,821784
Duque de Caxias,-22.78556,-43.31167,818329
Jos,9.92849,8.89212,816824
Valencia,39.46975,-0.37739,814208
Ilorin,8.49664,4.54214,814192
Callao,-12.05659,-77.11814,813264
La Paz,-16.5,-68.15,812799
Ottawa,45.41117,-75.69812,812129
Barquisimeto,10.07389,-69.32278,809490
Chihuahua,28.63528,-106.08889,809232
San Francisco,37.77493,-122.41942,805235
Nanning,22.81667,108.31667,803788
Freetown,8.484,-13.22994,802639
Johor Bahru,1.4655,103.7578,802489
Jerusalem,31.76904,35.21633,801000
Bandarlampung,-5.42544,105.25803,800348
Bogor,-6.59444,106.78917,800000
Zagreb - Centar,45.81313,15.97753,800000
Mombasa,-4.05466,39.66359,799668
Cebu City,10.31672,123.89071,798634
Muscat,23.61387,58.5922,797000
Zaporizhzhya,47.82289,35.19031,796217
Marseille,43.29695,5.38107,794811
Zarqa,32.07275,36.08796,792665
Çankaya,39.9179,32.86268,792189
Austin,30.26715,-97.74306,790390
Columbus,39.96118,-82.99879,787033
Boumerdas,36.76639,3.47717,786499
Jalandhar,31.32556,75.57917,785178
Thiruvananthapuram,8.4855,76.94924,784153
Sakai,34.58333,135.46667,782339
Anyang,36.09944,114.32889,781129
San Miguel de Tucumán,-26.82414,-65.2226,781023
Salem,11.65117,78.15867,778396
Tiruchirappalli,10.8155,78.69651,775484
Homs,34.72682,36.72339,775404
Hohhot,40.81056,111.65222,774477
Niamey,13.51366,2.1098,774235
Tainan,22.99083,120.21333,771235
Shangyu,30.01556,120.87111,770000
Łódź,51.75,19.46667,768755
Dammam,26.43442,50.10326,768602
Xining,36.62554,101.75739,767531
Kahrīz,34.3838,47.0553,766706
Kota,25.18254,75.83907,763088
Natal,-5.795,-35.20944,763043
Bhubaneshwar,20.27241,85.83385,762243
Qinhuangdao,39.93167,119.58833,759718
Hengyang,26.88946,112.61888,759602
Antalya,36.90812,30.69556,758188
Kraków,50.06143,19.93658,755050
Alīgarh,27.88334,78.07475,753207
Da Nang,16.06778,108.22083,752493
Pietermaritzburg,-29.61679,30.39278,750845
Lomé,6.13748,1.21227,749700
Trujillo,-8.11599,-79.02998,747450
Malang,-7.9797,112.6304,746716
Ciudad Guayana,8.35122,-62.64102,746535
Bareilly,28.34702,79.42193,745435
Kigali,-1.94995,30.05885,745261
Teresina,-5.08917,-42.80194,744512
Xinxiang,35.30889,113.86722,743601
São Bernardo do Campo,-23.69389,-46.565,743372
Hegang,47.35118,130.30012,743307
Riga,56.946,24.10589,742572
Amsterdam,52.37403,4.88969,741636
Fort Worth,32.72541,-97.32085,741206
Oyo,7.85257,3.93125,736072
Quetta,30.199,67.00971,733675
Charlotte,35.22709,-80.84313,731424
Campo Grande,-20.44278,-54.64639,729151
Ashgabat,37.95,58.38333,727700
Álvaro Obregón,19.35867,-99.20329,727034
Muzaffarābād,34.37002,73.47082,725000
Guadalupe,25.67678,-100.25646,724921
Bağcılar,41.03903,28.85671,724270
As Sulaymānīyah,35.56496,45.4329,723170
Cúcuta,7.89391,-72.50782,721398
Morādābād,28.83893,78.77684,721139
N'Djamena,12.10672,15.0444,721081
Langfang,39.50972,116.69472,720119
Zhumadian,32.97944,114.02944,720000
Yantai,37.47649,121.44081,719332
L'viv,49.83826,24.02324,717803
Mérida,20.97537,-89.61696,717175
Tlalnepantla,19.54005,-99.19538,715767
Detroit,42.33143,-83.04575,713777
Edmonton,53.55014,-113.46871,712391
Jeonju,35.82194,127.14889,711424
Zhuzhou,27.83333,113.15,709358
Subang Jaya,3.04384,101.58062,708296
Bhiwandi,19.30023,73.05881,707035
Pekanbaru,0.53333,101.45,703956
Sevilla,37.38283,-5.97317,703206
Tol’yatti,53.5303,49.3461,702879
Jaboatão,-8.18028,-35.00139,702621
Shizuoka-shi,34.97695,138.38306,701561
Santo Domingo Oeste,18.5,-70,701269
Rājshāhi,24.374,88.60114,700133
City of Balikpapan,-1.24204,116.89419,700000
Changzhi,35.20889,111.73861,699514
Bulawayo,-20.15,28.58333,699385
Zagreb,45.81444,15.97798,698966
Agadir,30.42018,-9.59815,698310
Sarajevo,43.84864,18.35644,696731
La Plata,-34.92145,-57.95453,694167
Tunis,36.81897,10.16579,693210
Zhangjiakou,40.81,114.87944,692602
Cotonou,6.36536,2.41833,690584
Zigong,29.34162,104.77689,689961
Fuxin,42.01556,121.65889,689050
Enugu,6.44258,7.5022,688862
Tangier,35.76727,-5.79975,688356
Huangshi,30.24706,115.04814,688090
Liaoyang,41.27194,123.17306,687890
Kumamoto,32.80589,130.69181,680423
Raipur,21.23333,81.63333,679995
General Santos,6.11278,125.17167,679588
Dushanbe,38.53575,68.77905,679400
Osasco,-23.5325,-46.79167,677856
San Luis Potosí,22.14982,-100.97916,677704
Matola,-25.96222,32.45889,675422
Culiacán,24.79032,-107.38782,675000
Zaragoza,41.65606,-0.87734,674317
Gorakhpur,26.75479,83.37235,674246
Xiangtan,27.85,112.9,674189
Ipoh,4.5841,101.0829,673318
Mississauga,43.5789,-79.6583,668549
Puyang Chengguanzhen,35.70506,115.01409,666322
Nantong,32.03028,120.87472,666251
Mudanjiang,44.58333,129.6,665915
Athens,37.97945,23.71622,664046
Santo André,-23.66389,-46.53833,662373
Nouakchott,18.08581,-15.9785,661400
Pointe-Noire,-4.77609,11.86352,659084
Aguascalientes,21.88234,-102.28259,658179
Kryvyi Rih,47.90966,33.38044,652380
Acapulco de Juárez,16.86336,-99.8901,652136
João Pessoa,-7.115,-34.86306,650883
Ansan-si,37.32361,126.82194,650728
Benghazi,32.11486,20.06859,650629
Frankfurt am Main,50.11552,8.68417,650000
Krasnodar,45.04484,38.97603,649851
Guilin,25.28194,110.28639,649352
El Paso,31.75872,-106.48693,649121
Palermo,38.13205,13.33561,648260
Colombo,6.93194,79.84778,648034
Memphis,35.14953,-90.04898,646889
Lilongwe,-13.96692,33.78725,646750
Oran,35.69111,-0.64167,645984
Diyarbakır,37.91363,40.21721,644763
Taguig,14.5243,121.0792,644473
New South Memphis,35.08676,-90.05676,641608
Ulyanovsk,54.32824,48.38657,640680
Kotli,33.51667,73.91667,640000
Okayama-shi,34.66167,133.935,639652
Zhanjiang,21.28145,110.34271,637790
Al Aḩmadī,29.07694,48.08389,637411
Yogyakarta,-7.78278,110.36083,636660
North York,43.76681,-79.4163,636000
Chişinău,47.00556,28.8575,635994
Wrocław,51.1,17.03333,634893
Cheongju-si,36.63722,127.48972,634596
Anyang-si,37.3925,126.92694,634367
Tébessa,35.40417,8.12417,634332
Zhenjiang,32.21086,119.45508,632552
Winnipeg,49.8844,-97.14704,632063
Dandong,40.12917,124.39472,631973
Izhevsk,56.84976,53.20448,631038
Jaboatão dos Guararapes,-8.11278,-35.01472,630008
Shaoguan,24.8,113.58333,628749
Yancheng,33.3575,120.1573,628441
Coyoacán,19.3467,-99.16174,628063
Contagem,-19.93167,-44.05361,627123
Santiago de Querétaro,20.58806,-100.38806,626495
Bhilai,21.21667,81.43333,625138
Panshan,41.18806,122.04944,625040
Djibouti,11.58901,43.14503,623891
Saltillo,25.42321,-101.0053,621250
Kermānshāh,34.31417,47.065,621100
Baltimore,39.29038,-76.61219,620961
Ribeirão Preto,-21.1775,-47.81028,619746
Al Ḩudaydah,14.79781,42.95452,617871
Boston,42.35843,-71.05977,617594
Pasig City,14.58691,121.0614,617301
Jamshedpur,22.80278,86.18545,616338
Haikou,20.04583,110.34167,615835
Ta‘izz,13.57952,44.02091,615222
São José dos Campos,-23.17944,-45.88694,613764
Taizhou,32.49069,119.90812,612356
Xingtai,37.06306,114.49417,611739
Glasgow,55.86515,-4.25763,610268
Borivli,19.23496,72.85976,609617
Seattle,47.60621,-122.33207,608660
Tlalpan,19.29707,-99.16787,607545
Yaroslavl,57.62987,39.87368,606730
Benoni,-26.18848,28.32078,605344
Hamamatsu,34.7,137.73333,605098
Cochin,9.93988,76.26022,604696
Jinzhou,41.10778,121.14167,604269
Amrāvati,20.93333,77.75,603837
Abu Dhabi,24.46667,54.36667,603492
Haiphong,20.86481,106.68345,602695
"Washington, D.C.",38.89511,-77.03637,601723
Islamabad,33.72148,73.04329,601600
Kirkuk,35.46806,44.39222,601433
Sāngli,16.85438,74.56417,601214
Denver,39.73915,-104.9847,600158
Shuangyashan,46.63611,131.15389,600000
Situbondo,-7.70623,114.00976,600000
Scarborough,43.77223,-79.25666,600000
Barnaul,53.36056,83.76361,599579
Rotterdam,51.9225,4.47917,598199
Luancheng,37.87917,114.65167,597130
Mexicali,32.62781,-115.45446,597099
Hermosillo,29.1026,-110.97732,595811
Milwaukee,43.0389,-87.90647,594833
Rasht,37.28077,49.58319,594590
Abeokuta,7.15571,3.34509,593100
Essen,51.45657,7.01228,593085
Kayseri,38.73222,35.48528,592840
Morelia,19.70078,-101.18443,592797
Gold Coast,-28.00029,153.43088,591473
Yingkou,40.66482,122.22833,591159
Abuja,9.05785,7.49508,590400
Zhangzhou,24.51333,117.65556,589831
Stuttgart,48.78232,9.17702,589793
Dortmund,51.51494,7.466,588462
Vladivostok,43.10562,131.87353,587022
Irkutsk,52.29778,104.29639,586695
Blantyre,-15.78499,35.00854,584877
New Kingston,18.00747,-76.78319,583958
Portland,45.52345,-122.67621,583776
Las Vegas,36.17497,-115.13722,583756
Üsküdar,41.02252,29.02369,582666
Genoa,44.4264,8.91519,580223
Oslo,59.91273,10.74609,580000
Cuttack,20.46497,85.87927,580000
Oklahoma City,35.46756,-97.51643,579999
Hachiōji,35.65583,139.32389,579399
Khabarovsk,48.48271,135.08379,579000
Khabarovsk Vtoroy,48.43776,135.13329,578303
Libreville,0.39241,9.45356,578156
Kermān,30.28321,57.07879,577514
Chiclayo,-6.77137,-79.84088,577375
Orūmīyeh,37.55274,45.07605,577307
Bahçelievler,41.00231,28.8598,576799
Bengbu,32.94083,117.36083,576648
Bīkāner,28.02094,73.30749,576015
Umraniye,41.01643,29.12476,573265
Düsseldorf,51.22172,6.77616,573057
Banjarmasin,-3.31987,114.59075,572837
Shihezi,44.3023,86.03694,572772
Bucaramanga,7.12539,-73.1198,571820
South Boston,42.33343,-71.04949,571281
Kuching,1.55,110.33333,570407
Poznań,52.40692,16.92993,570352
Veracruz,19.18095,-96.1429,568313
Málaga,36.72016,-4.42034,568305
Bouaké,7.69385,-5.03031,567481
Asmara,15.33805,38.93184,563930
Sokoto,13.06269,5.24322,563861
Uberlândia,-18.91861,-48.27722,563536
Onitsha,6.14543,6.78845,561066
Funabashi,35.69306,139.98333,560743
Hamhŭng,39.91833,127.53639,559056
Sorocaba,-23.50167,-47.45806,558862
Helsinki,60.16952,24.93545,558457
Warangal,18,79.58333,557802
Santiago de Cuba,20.02472,-75.82194,555865
Siping,43.16143,124.37785,555609
Kagoshima-shi,31.56019,130.55814,555352
Surakarta,-7.55611,110.83167,555308
Huai'an,33.58861,119.01917,555230
Bhāvnagar,21.77445,72.1525,554978
Mar del Plata,-38.00228,-57.55754,553935
Bahāwalpur,29.4,71.68333,552607
Zahedan,29.4963,60.8629,551980
Aden,12.77944,45.03667,550602
Nanded,19.16023,77.31497,550564
Orenburg,51.7727,55.0988,550204
Pristina,42.67272,21.16688,550000
Changwon,35.22806,128.68111,550000
Jiamusi,46.79927,130.31633,549549
Antipolo,14.62578,121.12251,549543
Neijiang,29.58354,105.06216,546854
Bremen,53.07516,8.80777,546501
Albuquerque,35.08449,-106.65114,545852
Meknès,33.89352,-5.54727,545705
Sharjah,25.33737,55.41206,543733
Banqiao,25.01427,121.46719,543342
Sargodha,32.08361,72.67111,542603
Bangui,4.36122,18.55496,542393
Vilnius,54.68916,25.2798,542366
Cancún,21.17429,-86.84656,542043
Yangzhou,32.39722,119.43583,539715
Novokuznetsk,53.7557,87.1099,539616
Kisangani,0.51528,25.19099,539158
Port Said,31.25654,32.28411,538378
Mercin,36.79526,34.61792,537842
Warri,5.51667,5.75,536023
Guli,28.88162,120.03308,536000
Ebute Ikorodu,6.60086,3.48818,535619
Tanggu,39.02111,117.64694,535298
Jiangmen,22.58333,113.08333,532419
Nashville,36.16589,-86.78444,530852
Ta’if,21.27028,40.41583,530848
Beira,-19.84361,34.83889,530604
Guntūr,16.29974,80.45729,530577
Touba,14.85,-15.88333,529176
Québec,46.81228,-71.21454,528595
Hamadān,34.79922,48.51456,528256
Cangzhou,38.31667,116.86667,527681
San Salvador,13.68935,-89.18718,525990
Santa María Chimalhuacán,19.42155,-98.95038,525389
Torreon,25.54389,-103.41898,524066
Dehradun,30.32443,78.03392,522081
Cuiabá,-15.59611,-56.09667,521934
Cuauhtémoc,19.44506,-99.14612,521348
Ciudad López Mateos,19.58547,-99.26035,521034
Petaling Jaya,3.10726,101.60671,520698
Macau,22.20056,113.54611,520400
Bhayandar,19.30157,72.85107,520301
Esenler,41.0435,28.87619,520235
Ryazan’,54.6269,39.6916,520173
Tucson,32.22174,-110.92648,520116
Hamilton,43.25011,-79.84963,519949
Tyumen,57.15222,65.52722,519119
Durgāpur,23.49957,87.32155,518872
Quilmes,-34.72418,-58.25265,518788
Ajmer,26.44976,74.64116,517911
Lisbon,38.71667,-9.13333,517802
Changde,29.04638,111.6783,517780
Jiaozuo,35.23972,113.23306,517540
Ulhasnagar,19.21667,73.15,516584
Kolhāpur,16.69563,74.23167,516142
Lipetsk,52.60311,39.57076,515655
Shiliguri,26.71004,88.42851,515574
Hannover,52.37052,9.73322,515140
Eskişehir,39.77667,30.52056,514869
Āzādshahr,34.79049,48.57011,514102
Salta,-24.7859,-65.41166,512686
Penza,53.20066,45.00464,512602
Tembisa,-25.99636,28.2268,511655
Bilimora,20.76957,72.96134,510879
Mykolayiv,46.96591,31.9974,510840
Aparecida de Goiânia,-16.82333,-49.24389,510770
Puente Alto,-33.61169,-70.57577,510417
Makati City,14.55027,121.03269,510383
Naberezhnyye Chelny,55.72545,52.41122,509870
Wuhu,31.33728,118.37351,507524
Toluca,19.28786,-99.65324,505881
Niigata-shi,37.90222,139.02361,505272
Karol Bāgh,28.65156,77.18859,505241
Leipzig,51.33962,12.37129,504971
Kalininskiy,59.99675,30.3899,504641
Duisburg,51.43247,6.76516,504358
Āsansol,23.68333,86.98333,504271
Göteborg,57.70716,11.96679,504084
Arāk,34.09174,49.68916,503647
Astrakhan’,46.34968,48.04076,502533
Zhuhai,22.27694,113.56778,501199
Pohang,36.03222,129.365,500000
Nürnberg,49.45421,11.07752,499237
Shashi,30.30722,112.24472,498780
Reynosa,26.07681,-98.29748,498654
Makhachkala,42.97638,47.50236,497959
Fresno,36.74773,-119.77237,494665
Cimahi,-6.87222,107.5425,493698
Tlaquepaque,20.64091,-103.29327,493646
Wuwei,37.92672,102.63202,493092
Jāmnagar,22.47292,70.06673,492056
Aracaju,-10.91111,-37.07167,490175
Port Sudan,19.61745,37.21644,489725
Santa Fe de la Vera Cruz,-31.63333,-60.7,489505
San Pedro Sula,15.50417,-88.025,489466
Suez,29.97371,32.52627,488125
Dresden,51.05089,13.73832,486854
Tomsk,56.49771,84.97437,485519
Masina,-4.38361,15.39139,485167
Sahāranpur,29.9679,77.54522,484873
Gulbarga,17.33763,76.83787,483615
Bhātpāra,22.86643,88.40113,483129
An Najaf,32.02594,44.34625,482576
Feira de Santana,-12.26667,-38.96667,481911
Shah Alam,3.08507,101.53281,481654
Mariupol,47.09514,37.54131,481626
Himeji,34.81667,134.7,481493
Tuxtla Gutiérrez,16.75973,-93.11308,481128
Gomel,52.4345,30.9754,480951
Uijeongbu-si,37.7415,127.0474,479141
East London,-33.01529,27.91162,478676
Yazd,31.89722,54.3675,477905
Hargeysa,9.56,44.065,477876
Sialkot,32.49268,74.53134,477396
Kemerovo,55.33333,86.08333,477090
Yichang,30.71444,111.28472,476725
Hwaseong-si,37.20682,126.8169,476297
Cuautitlán Izcalli,19.64388,-99.21598,475179
Yinchuan,38.46806,106.27306,475101
Skopje,41.99646,21.43141,474889
Vereeniging,-26.67313,27.92615,474681
The Hague,52.07667,4.29861,474292
Mixco,14.63333,-90.60639,473080
Lyon,45.74846,4.84671,472317
Londrina,-23.31028,-51.16278,471832
Jiaojiang,28.68028,121.44278,470804
Matsudo,35.78333,139.9,470277
Juiz de Fora,-21.76417,-43.35028,470193
Liverpool,53.41058,-2.97794,468945
Nishinomiya-hama,34.71562,135.33199,468925
Tula,54.19609,37.61822,468825
Staten Island,40.56233,-74.13986,468730
Kawaguchi,35.80521,139.71072,468565
Sacramento,38.58157,-121.4944,466488
Zunyi,27.68667,106.90722,466292
Jiaxing,30.7522,120.75,466101
Belford Roxo,-22.76417,-43.39944,466096
Jammu,32.73569,74.86911,465567
Liaoyuan,42.90361,125.13583,465249
Kananga,-5.89624,22.41659,463546
Bloemfontein,-29.12107,26.214,463064
Xiangyang,32.0422,112.14479,462956
Long Beach,33.76696,-118.18923,462257
Gdańsk,54.35205,18.64637,461865
Calabar,4.9517,8.322,461796
Dadukou,26.5479,101.70539,461513
Joinville,-26.30444,-48.84556,461304
Ḩamāh,35.13179,36.75783,460602
Antwerpen,51.21989,4.40346,459805
Kansas City,39.09973,-94.57857,459787
Kanazawa-shi,36.59445,136.62556,458937
Karabağlar,38.37396,27.1352,458000
Zamboanga,6.91028,122.07389,457623
Kirov,58.59665,49.66007,457383
Ujjain,23.18239,75.77643,457346
Kota Kinabalu,5.9749,116.0724,457326
Victoria de Durango,24.02032,-104.65756,457140
Niterói,-22.88333,-43.10361,456456
Hengshui,37.73222,115.70111,456356
Tabūk,28.3998,36.57151,455450
Pontianak,-0.03109,109.32199,455173
Leeds,53.79648,-1.54785,455123
Namp’o,38.7375,125.40778,455000
Bacolod City,10.66667,122.95,454898
São João de Meriti,-22.80389,-43.37222,454849
Mansilingan,10.63111,122.97889,454150
Rāmgundam,18.80084,79.45206,452261
Luhansk,48.56705,39.31706,452000
Manado,1.48218,124.84892,451893
Karagandy,49.83333,73.1658,451800
Jining,35.405,116.58139,450327
Constantine,36.365,6.61472,450097
Wenshan City,23.36306,104.25047,450000
Utsunomiya-shi,36.56583,139.88361,449865
Heroica Matamoros,25.87972,-97.50417,449815
Şanlıurfa,37.16708,38.79392,449549
Chengde,40.9725,117.93611,449325
Xuchang,34.01667,113.81667,449258
Ōita,33.23806,131.6125,448907
Venustiano Carranza,19.44286,-99.09724,447459
San Juan,-31.5375,-68.53639,447048
Sheffield,53.38297,-1.4659,447047
Cheboksary,56.13222,47.25194,446781
Boksburg,-26.21197,28.25958,445168
Cagayan de Oro,8.48222,124.64722,445103
Matsuyama,33.83916,132.76574,443322
San Nicolás de los Garza,25.74167,-100.30222,443273
Amagasaki,34.71667,135.41667,442173
Carrefour,18.54114,-72.39922,442156
Shyamnagar,22.83333,88.36667,441956
Dasmariñas,14.32944,120.93667,441876
Malatya,38.35018,38.31667,441805
Nangi,22.50833,88.21528,440894
Pereira,4.81333,-75.69611,440118
Kozhikode,11.24802,75.7804,439922
Mesa,33.42227,-111.82264,439041
Mawlamyine,16.49051,97.62825,438861
Virginia Beach,36.85293,-75.97799,437994
Iquitos,-3.74912,-73.25383,437620
Kurashiki,34.58333,133.76667,437581
Sultangazi,41.10652,28.86847,436935
Garoua,9.30143,13.39771,436899
Murcia,37.98704,-1.13004,436870
Mwanza,-2.51667,32.9,436801
Uyo,5.05127,7.9335,436606
Bei’an,48.26667,126.6,436444
Tirunelveli,8.72518,77.68452,435844
Edinburgh,55.95206,-3.19648,435791
Kousséri,12.07689,15.03063,435547
Mālegaon,20.5537,74.52881,435362
Kaliningrad,54.70649,20.51095,434954
Karbala,32.61603,44.02488,434450
Ananindeua,-1.36556,-48.37222,433956
Balikpapan,-1.26753,116.82887,433866
Brampton,43.68341,-79.76633,433806
Toulouse,43.60426,1.44367,433055
Namangan,40.9983,71.67257,432456
Katsina,12.99082,7.60177,432149
Welkom,-27.97742,26.73506,431944
Santa Marta,11.24079,-74.19904,431781
Al Maḩallah al Kubrá,30.97063,31.1669,431052
Bristol,51.45523,-2.59665,430713
Jālgaon,21.01009,75.56843,429298
Yokosuka,35.28361,139.66722,428992
Akola,20.70957,76.9981,428857
Belgaum,15.85212,74.50447,428720
East Jerusalem,31.78336,35.23388,428304
Luqiao,28.58023,121.37491,427890
Bryansk,53.25209,34.37167,427236
Maltepe,40.93567,29.15507,427040
Azcapotzalco,19.48698,-99.18594,425298
Xalapa de Enríquez,19.53124,-96.91589,425148
Barcelona,10.13333,-64.7,424795
Chaozhou,23.65396,116.62262,424787
Ado-Ekiti,7.62329,5.22087,424340
Bratislava,48.14816,17.10674,423737
Gaya,24.79686,85.00385,423692
Udaipur,24.57117,73.69183,422784
Likasi,-10.98303,26.7384,422414
Luxor,25.69893,32.6421,422407
Ibagué,4.43889,-75.23222,421685
Shaoxing,30.00237,120.57864,421283
Ivanovo,56.99719,40.97139,420839
Erzurum,39.90861,41.27694,420691
Akure,7.25256,5.19312,420594
Asyūţ,27.18096,31.18368,420585
Jambi City,-1.6,103.61667,420323
Al Manşūrah,31.03637,31.38069,420195
Atlanta,33.749,-84.38798,420003
Korba,22.3458,82.69633,419146
Bokāro,23.78732,85.95622,418533
San Juan,18.46633,-66.10572,418140
Kolwezi,-10.71484,25.46674,418000
Auckland,-36.86667,174.76667,417910
Sukkur,27.70516,68.85738,417767
Mangalore,12.91723,74.85603,417387
Luohe,33.57167,114.03528,417356
Colorado Springs,38.83388,-104.82136,416427
Shymkent,42.3,69.6,414032
Yangquan,37.8575,113.56333,413394
Magnitogorsk,53.41861,59.04722,413351
Jhānsi,25.45446,78.58221,412927
Florianópolis,-27.59667,-48.54917,412724
Wandsbek,53.56667,10.1,411422
Santos,-23.96083,-46.33361,411403
Maturín,9.74569,-63.18323,410972
Ardabīl,38.2498,48.2933,410753
Nagasaki-shi,32.74472,129.87361,410204
Chaoyang,41.57028,120.45861,410005
Gaza,31.5,34.46667,410000
Kursk,51.73733,36.18735,409431
Omaha,41.25861,-95.93779,408958
Al Ain,24.19167,55.76056,408733
Jeju-si,33.50972,126.52194,408364
Panamá,8.9936,-79.51973,408168
Shiyan,32.56667,110.78333,408055
Szczecin,53.42894,14.55302,407811
Biên Hòa,10.94469,106.82432,407208
Villa Nueva,14.52694,-90.5875,406830
Ribeirão das Neves,-19.76694,-44.08667,406802
Hirakata,34.81352,135.64914,406331
Denpasar,-8.65,115.21667,405923
Oujda,34.68053,-1.90764,405253
Tanda,30.78847,31.00192,404901
Newcastle,-27.75796,29.9318,404838
Xochimilco,19.25785,-99.10513,404458
Nellore,14.45363,79.98674,404158
Hsinchu,24.80361,120.96861,404109
Raleigh,35.7721,-78.63861,403892
Jixi,45.30109,130.95718,403759
Zanzibar,-6.16394,39.19793,403658
Taoyuan City,24.99368,121.29696,402014
Tonalá,20.62445,-103.23423,401509
Kassala,15.45099,36.39998,401477
Palma,39.56939,2.65024,401270
Kitwe,-12.80243,28.21323,400914
An Nāşirīyah,31.05799,46.25726,400249
Tver,56.85836,35.90057,400212
West Jerusalem,31.78199,35.21961,400000
Machida,35.54028,139.45083,399969
Yangjiang,21.85563,111.96272,399735
Miami,25.77427,-80.19366,399457
Khmel’nyts’kyy,49.42161,26.99653,398346
Gifu-shi,35.42291,136.76039,397714
Tiruppur,11.11541,77.35456,397521
Keelung,25.12825,121.7419,397515
Cleveland,41.4995,-81.69541,396815
Al Hoceïma,35.25165,-3.93723,395644
Manchester,53.48095,-2.23743,395515
Surrey,49.10635,-122.82509,394976
Vila Velha,-20.32972,-40.2925,394930
Weifang,36.71,119.10194,394732
Fujisawa,35.34194,139.47,394624
Ndola,-12.95867,28.63659,394518
Kollam,8.88113,76.58469,394163
Serra,-20.12861,-40.30778,394153
Samsun,41.28667,36.33,394050
Tallinn,59.43696,24.75353,394024
Bamenda,5.9597,10.14597,393835
El Obeid,13.18421,30.21669,393311
Bello,6.33732,-75.55795,392939
Xinpu,34.59972,119.15944,392444
Sandakan,5.8402,118.1179,392288
Tulsa,36.15398,-95.99277,391906
Buraydah,26.32599,43.97497,391336
Kandahār,31.61332,65.71013,391190
Oakland,37.80437,-122.2708,390724
Diadema,-23.68611,-46.62278,390633
Comilla,23.46186,91.18503,389411
Samut Prakan,13.59934,100.59675,388920
Nampula,-15.11646,39.2666,388526
Bissau,11.86357,-15.59767,388028
Iloilo,10.69694,122.56444,387681
Khamis Mushait,18.3,42.73333,387553
Campos,-21.75227,-41.33044,387417
Resistencia,-27.46056,-58.98389,387158
Mişrātah,32.37535,15.09254,386120
Mauá,-23.66778,-46.46139,386069
Abomey-Calavi,6.44852,2.35566,385755
Bochum,51.48165,7.21648,385729
Toyonaka,34.78244,135.46932,384459
Iztacalco,19.39528,-99.09778,384326
Betim,-19.96778,-44.19833,384000
Fukuyama,34.48333,133.36667,383298
N’dalatando,-9.29782,14.91162,383100
Delmas 73,18.54472,-72.30278,382920
Minneapolis,44.97997,-93.26384,382578
Wichita,37.69224,-97.33754,382368
Pasto,1.21361,-77.28111,382236
Batman,37.88738,41.13221,381990
Wellington,-41.28664,174.77557,381900
Las Palmas de Gran Canaria,28.09973,-15.41343,381847
Caxias do Sul,-29.16806,-51.17944,381270
Nizhniy Tagil,57.91944,59.965,381116
Bochum-Hordel,51.50168,7.1756,380000
Dezhou,37.45127,116.31046,379555
Sevastopol,44.58883,33.5224,379200
Krugersdorp,-26.08577,27.77515,378821
Pānihāti,22.69089,88.37404,378705
Toyohashi,34.76667,137.38333,378374
Zhoukou,33.63333,114.63333,377061
Laval,45.56995,-73.692,376845
Huancayo,-12.06513,-75.20486,376657
Makiyivka,48.04782,37.92576,376610
Putian,25.43944,119.01028,376558
Kahramanmaraş,37.5847,36.92641,376045
Minato,34.2152,135.1501,375339
Tirana,41.3275,19.81889,374801
São José do Rio Preto,-20.81972,-49.37944,374699
Kaunas,54.9,23.9,374643
Zhangjiakou Shi Xuanhua Qu,40.61028,115.04472,373422
Seremban,2.7297,101.9381,372917
Pingxiang,27.61672,113.85353,372123
Van,38.49457,43.38323,371713
Honolulu,21.30694,-157.85833,371657
Abadan,30.3392,48.3043,370180
Puerto La Cruz,10.21667,-64.61667,370000
Fenghuang,27.93557,109.59961,370000
Brno,49.19522,16.60796,369559
Mahilyow,53.9168,30.3449,369200
Canberra,-35.28346,149.12807,367752
Nara-shi,34.68505,135.80485,367353
Ahmadnagar,19.09457,74.73843,367140
Dhule,20.90251,74.77735,366980
Olinda,-8.00889,-34.85528,366754
Kenitra,34.26101,-6.5802,366570
Bydgoszcz,53.1235,18.00762,366452
Kuantan,3.8077,103.326,366229
Bologna,44.49381,11.33875,366133
San Miguel Xico Viejo,19.27022,-98.93588,365777
Arlington,32.73569,-97.10807,365438
Cheonan,36.8065,127.1522,365114
Petare,10.47226,-66.80155,364684
Lārkāna,27.55508,68.21414,364033
Al Qadarif,14.03493,35.38344,363945
Christchurch,-43.53333,172.63333,363926
Stavropol’,45.0428,41.9734,363064
Villahermosa,17.98689,-92.93028,362401
Toyota,35.08333,137.15,362383
Manukau City,-36.99282,174.87986,362000
Zhaoqing,23.05116,112.45972,361969
Ataşehir,40.9833,29.1167,361615
Bhāgalpur,25.24446,86.97183,361548
Sheikhupura,31.71306,73.97833,361303
Carapicuíba,-23.52272,-46.835,361112
Wuppertal,51.27027,7.16755,360797
Tamale,9.40079,-0.8393,360579
Ulan-Ude,51.82721,107.60627,360278
Nagano-shi,36.65139,138.18111,360176
Bobo-Dioulasso,11.17715,-4.2979,360106
Lublin,51.25,22.56667,360044
Halifax,44.64533,-63.57239,359111
Anqing,30.51365,117.04723,358661
Taraz,42.9,71.36667,358153
Simferopol,44.95719,34.11079,358108
San Jose del Monte,14.81389,121.04528,357828
Manizales,5.06889,-75.51738,357814
Kwangmyŏng,37.47722,126.86639,357545
Zanjān,36.6736,48.4787,357471
Iwaki,37.05,140.88333,357309
Bacoor,14.45903,120.92903,356974
Asahikawa,43.77063,142.36489,356612
Kimhae,35.23417,128.88111,356242
Arkhangel’sk,64.5401,40.5433,356051
Ambon,-3.69543,128.18141,355596
Samarinda,-0.48585,117.1466,355160
Benito Juarez,19.3984,-99.15766,355017
Bilbao,43.26271,-2.92528,354860
Mazatlán,23.2329,-106.4062,354717
Santiago del Estero,-27.79511,-64.26149,354692
Takatsuki,34.84833,135.61678,354468
Thessaloníki,40.64361,22.93086,354290
Miguel Hidalgo,19.43471,-99.20091,353534
Barinas,8.62261,-70.20749,353442
Neiva,2.9273,-75.28189,352855
Okazaki,34.95,137.16667,352361
Bandar ‘Abbās,27.1865,56.2808,352173
Vinnytsya,49.23278,28.48097,352115
Apodaca,25.75976,-100.16287,352064
Anshun,26.25,105.93333,351936
Suita,34.76143,135.51567,351630
Ixtapaluca,19.31556,-98.88284,351001
Wakayama-shi,34.22611,135.1675,351000
Hualian,23.97694,121.60444,350468
Lapu-Lapu City,10.31028,123.94944,350467
Punāsa,22.23544,76.39295,350000
Diepsloot,-25.93312,28.01213,350000
Muzaffarnagar,29.47394,77.70414,349706
Nuevo Laredo,27.47629,-99.51639,349550
Florence,43.77925,11.24626,349296
Sanandaj,35.31495,46.99883,349176
Latur,18.39721,76.56784,348967
Campina Grande,-7.23056,-35.88111,348936
Etobicoke,43.65421,-79.56711,347948
Camagüey,21.38083,-77.91694,347562
Bakersfield,35.37329,-119.01871,347483
London,42.98339,-81.23304,346765
Chifeng,42.26833,118.96361,346654
Hŭngnam,39.83167,127.61861,346082
Astana,51.1801,71.44598,345604
Belgorod,50.61074,36.58015,345289
Kosti,13.1629,32.66347,345068
Taihe,45.76195,130.85131,345033
Doha,25.27932,51.52245,344939
Turmero,10.22856,-67.47421,344700
Tlahuac,19.28348,-99.00317,344106
New Orleans,29.95465,-90.07507,343829
Cuernavaca,18.9261,-99.23075,343769
Kurgan,55.45,65.33333,343129
Rangpur,25.74664,89.25166,343122
Bhimbar,32.97568,74.07926,342900
Vitebsk,55.1904,30.2049,342700
Soledad,10.91843,-74.76459,342556
Shiqi,22.51682,113.38521,342306
Piracicaba,-22.72528,-47.64917,342209
Zürich,47.36667,8.55,341730
Kūkatpalli,17.48486,78.41376,341709
Jhang Sadr,31.27154,72.32842,341210
Arusha,-3.36667,36.68333,341136
Ambattūr,13.09818,80.16152,341049
Kōriyama,37.4,140.38333,340560
Plovdiv,42.15,24.75,340494
Chitungwiza,-18.01274,31.07555,340360
Kashiwa,35.85444,139.96889,340221
Latakia,35.53168,35.79011,340181
Yingbazha,41.18418,80.27921,340020
Irapuato,20.67675,-101.35628,339554
Tokorozawa,35.79916,139.46903,339435
Leicester,52.6386,-1.13169,339239
Corrientes,-27.4806,-58.8341,339067
Kaluga,54.5293,36.27542,338978
Macapá,0.03889,-51.06639,338936
West Raleigh,35.78682,-78.66389,338759
Nice,43.70313,7.26608,338620
Kaesŏng,37.97083,126.55444,338155
Ciudad Bolívar,8.12923,-63.54086,338000
Kawagoe,35.90861,139.48528,337931
Tungi,23.89154,90.40232,337579
Krasnogvargeisky,59.97305,30.47607,337091
Bellary,15.14575,76.91751,336681
Itaquaquecetuba,-23.48611,-46.34833,336679
Anaheim,33.83529,-117.9145,336265
Tampa,27.94752,-82.45843,335709
Kōchi-shi,33.55972,133.53111,335570
Bauru,-22.31472,-49.06056,335024
San José,9.93333,-84.08333,335007
Alicante,38.34517,-0.48149,334757
Takamatsu-shi,34.34028,134.04333,334223
Tieling,42.29306,123.84139,333907
Qazvin,36.26877,50.0041,333635
Muzaffarpur,26.12259,85.39055,333200
Kāmārhāti,22.67111,88.37472,332965
Wad Medani,14.40118,33.51989,332714
Jincheng,35.50222,112.83278,332650
Montes Claros,-16.735,-43.86167,332379
Bielefeld,52.03333,8.53333,331906
Bujumbura,-3.3822,29.3644,331700
Mandaue City,10.32361,123.92222,331320
Khorramshahr,30.44079,48.18428,330606
Mathura,27.50199,77.6833,330511
Khorramābād,33.48778,48.35583,329825
Soyapango,13.71024,-89.13989,329708
Patiāla,30.32715,76.40266,329224
Wŏnsan,39.15278,127.44361,329207
Pavlodar,52.27401,77.00438,329002
Córdoba,37.89155,-4.77275,328428
Chandrapur,19.94711,79.29607,328351
Canoas,-29.91778,-51.18361,328291
Sochi,43.59917,39.72569,327608
Chongjin,41.79556,129.77583,327000
Yanji,42.9075,129.50778,326957
Bhīlwāra,25.34644,74.63523,326431
Tétouan,35.57845,-5.36837,326261
Akita Shi,39.71806,140.10333,325837
Mogi das Cruzes,-23.52278,-46.18833,325746
Toyama-shi,36.69528,137.21139,325532
Piura,-5.19449,-80.63282,325466
Trichūr,10.51667,76.21667,325110
Aurora,39.72943,-104.83192,325078
Brahmapur,19.31151,84.7929,324726
Santa Ana,33.74557,-117.86783,324528
São Vicente,-23.96306,-46.39194,324457
Orël,52.96508,36.07849,324200
Suizhou,31.71111,113.36306,323945
Posadas,-27.36708,-55.89608,323739
Al ‘Amārah,31.83588,47.14399,323302
Volzhskiy,48.78583,44.77973,323293
Villavicencio,4.142,-73.62664,321717
Jundiaí,-23.18639,-46.88417,321589
San Miguelito,9.05032,-79.47068,321501
Smolensk,54.7818,32.0401,320991
Ciudad del Este,-25.50972,-54.61111,320782
Pelotas,-31.77194,-52.3425,320674
Kherson,46.65581,32.6178,320477
Shāhjahānpur,27.88142,79.9109,320434
Akita,39.71667,140.11667,320069
Maroua,10.59095,14.31593,319941
Morón,-34.65344,-58.61975,319934
Anápolis,-16.32667,-48.95278,319587
Pachuca de Soto,20.11697,-98.73329,319581
Shimoga,13.93157,75.56791,319550
Samarqand,39.65417,66.95972,319366
St. Louis,38.62727,-90.19789,319294
Murmansk,68.97917,33.09251,319263
Islington,51.53622,-0.10304,319143
Holguín,20.88722,-76.26306,319102
Ust-Kamenogorsk,49.97143,82.60586,319067
Ad Dīwānīyah,31.99289,44.92552,318801
Shangrao,28.45322,117.9686,318769
Mataram,-8.58333,116.11667,318674
Andijon,40.78206,72.34424,318419
Iaşi,47.16667,27.6,318012
Valladolid,41.65518,-4.72372,317864
Poltava,49.59373,34.54073,317847
New Delhi,28.63576,77.22445,317797
Koshigaya,35.88333,139.78333,317437
Vladikavkaz,43.03667,44.66778,317370
Hrodna,53.6884,23.8258,317365
Katowice,50.25841,19.02754,317316
Rohtak,28.89447,76.58917,317245
Baicheng,45.60746,122.82076,316970
Chimbote,-9.08528,-78.57833,316966
Cluj-Napoca,46.76667,23.6,316748
Calamba,14.21167,121.16528,316612
Bauchi,10.31344,9.84327,316149
Cherepovets,59.13333,37.9,315738
Armenia,4.53389,-75.68111,315328
Al Kūt,32.5128,45.81817,315162
Timişoara,45.75372,21.22571,315053
Vologda,59.2239,39.88398,314900
Şişli,41.06046,28.98717,314684
Soacha,4.57937,-74.21682,313945
Coacalco,19.63453,-99.1005,313405
Ganja,40.68278,46.36056,313300
Lianshan,40.76432,120.85327,313247
Denizli,37.77417,29.0875,313238
Ikeja,6.59651,3.34205,313196
Bonn,50.73438,7.09549,313125
Ostrava,49.83465,18.28204,313088
Varna,43.21667,27.91667,312770
Vitória,-20.31944,-40.33778,312656
Wusong,30.95,117.78333,312588
Iligan City,8.25,124.4,312323
Cusco,-13.52264,-71.96734,312140
Maringá,-23.42528,-51.93861,311724
Miyazaki-shi,31.91111,131.42389,311203
Percut,3.6253,98.864,311063
Pucallpa,-8.37915,-74.55387,310750
Jingdezhen,29.2947,117.20789,310565
Guarujá,-23.99306,-46.25639,310424
Sariwŏn,38.50722,125.75583,310100
Vladimir,56.13655,40.39658,310024
Antofagasta,-23.65236,-70.3954,309832
Botshabelo,-29.27016,26.7052,309714
Bengkulu,-3.80044,102.26554,309712
Butuan,8.94917,125.54361,309709
Tampico,22.27817,-97.86772,309003
Chita,52.03171,113.50087,308500
Coventry,52.40656,-1.51217,308313
Newcastle,-32.92715,151.77647,308308
Valledupar,10.46314,-73.25322,308237
General Escobedo,25.79516,-100.31461,308206
Biskra,34.85038,5.72805,307987
Mannheim,49.49671,8.47955,307960
Chernihiv,51.50551,31.28487,307684
Irbid,32.55556,35.85,307480
Tumkūr,13.34149,77.101,307359
Chinju,35.19278,128.08472,307242
Tawau,4.24482,117.89115,306462
Shengli,37.46271,118.49165,306450
Fīrozābād,27.14941,78.4018,306409
Al Fayyūm,29.30995,30.8418,306393
Porto Velho,-8.76194,-63.90389,306180
Celaya,20.52353,-100.8157,305901
San Salvador de Jujuy,-24.19457,-65.29712,305891
Pittsburgh,40.44062,-79.99589,305704
Brakpan,-26.23656,28.36938,305692
Mandaluyong City,14.5832,121.0409,305576
Nizāmābād,18.67154,78.0988,305438
Kulti,23.73166,86.84372,305405
Corpus Christi,27.80058,-97.39638,305215
Franca,-20.53861,-47.40083,305041
Rājahmundry,17.00517,81.77784,304804
Craiova,44.31667,23.8,304142
Riverside,33.95335,-117.39616,303871
Constanţa,44.18073,28.63432,303399
Saransk,54.1838,45.1749,303394
Mazār-e Sharīf,36.70904,67.11087,303282
Hull,53.7446,-0.33525,302296
Cardiff,51.48,-3.18,302139
Barddhamān,23.25572,87.85691,301725
Gujrāt,32.57284,74.07897,301506
Naha-shi,26.2125,127.68111,300795
Brest,52.09755,23.68775,300715
Mardan,34.20195,72.05254,300424
Surgut,61.25,73.41667,300367
George Town,5.41123,100.33543,300000
Kyzyl-Orda,44.8479,65.49989,300000
Malir Cantonment,24.9424,67.2066,300000
Juba,4.85165,31.58247,300000
Māndu,22.36667,75.38333,300000
Mérida,8.59524,-71.1434,300000
Yangshuo,24.78081,110.48967,300000
Kyzylorda,44.85278,65.50917,300000
Batikent,39.96833,32.73083,300000
Angeles City,15.15,120.58333,299391
Bradford,53.79391,-1.75206,299310
Santol,15.16222,120.5675,298976
Kasugai,35.24762,136.97229,298589
Jember,-8.17211,113.69953,298585
Aomori Shi,40.82444,140.74,298394
Ōtsu-shi,35.00444,135.86833,298164
Bārāsat,22.72154,88.48198,298127
Elazığ,38.67431,39.22321,298004
Okanagan,50.36386,-119.34997,297601
Cherkasy,49.42854,32.06207,297568
Vigo,42.23282,-8.72264,297332
Tampico,22.25528,-97.86861,297284
Akashi,34.63333,134.98333,297279
Bāli,22.64859,88.34115,296973
Cincinnati,39.162,-84.45689,296943
Hisar,29.15394,75.72294,296436
Rāmpur,28.80904,79.02895,296418
Yokkaichi,34.96667,136.61667,295841
Lexington-Fayette,38.0498,-84.45855,295803
Yeosu,34.76278,127.66528,295538
Morioka-shi,39.70361,141.1525,295172
Viña del Mar,-33.02457,-71.55183,294551
Sumy,50.9216,34.80029,294456
Fukushima-shi,37.75,140.46778,294237
Galaţi,45.45,28.05,294087
Blumenau,-26.91944,-49.06611,293949
Greater Noida,28.49615,77.53601,293908
Noida,28.58,77.33,293908
Foz do Iguaçu,-25.54778,-54.58806,293523
Al Hufūf,25.36457,49.56532,293179
Kākināda,16.96036,82.23809,292923
Pānīpat,29.39005,76.96949,292808
Semey,50.42675,80.26669,292780
Makurdi,7.7411,8.5121,292645
Wollongong,-34.424,150.89345,292190
Ponta Grossa,-25.095,-50.16194,292177
Minna,9.61524,6.54776,291905
Białystok,53.13333,23.16433,291855
Anchorage,61.21806,-149.90028,291826
Stockton,37.9577,-121.29078,291707
Mbeya,-8.9,33.45,291649
Mueang Nonthaburi,13.86075,100.51477,291555
Gumi,36.1136,128.336,291006
Tambov,52.73169,41.44326,290933
Catania,37.49223,15.07041,290927
Al Mubarraz,25.41,49.58083,290802
Bafoussam,5.47775,10.41759,290768
Kasūr,31.11556,74.44667,290643
Utrecht,52.09083,5.12222,290529
Xiuying,20.00073,110.29359,290000
Paulista,-7.94083,-34.87306,289971
Al Ḩillah,32.46367,44.41963,289709
Limeira,-22.56472,-47.40167,289665
Parbhani,19.26855,76.77081,289629
Victoria,48.43294,-123.3693,289625
Beihai,21.48333,109.1,289568
Huizhou,23.11147,114.41523,289201
Zeytinburnu,40.99441,28.90417,288743
Tsuen Wan,22.37066,114.10479,288728
Ironville,38.45647,-82.69238,288649
Meads,38.41258,-82.70905,288649
Sétif,36.19112,5.41373,288461
Safi,32.29939,-9.23718,288163
Sinŭiju,40.10056,124.39806,288112
Huế,16.4619,107.59546,287217
Toledo,41.66394,-83.55521,287208
Darbhanga,26.15216,85.89707,287150
Marienthal,53.56667,10.08333,287101
Adapazarı,40.78056,30.40333,286787
Sultanbeyli,40.96072,29.27067,286622
Viamão,-30.08111,-51.02333,285269
Zagazig,30.58768,31.502,285097
Saint Paul,44.94441,-93.09327,285068
Kuala Terengganu,5.3302,103.1408,285065
Ismailia,30.60427,32.27225,284813
Alto Barinas,8.5931,-70.2261,284289
Dihok,36.86709,42.98845,284000
Karlsruhe,49.00937,8.40444,283799
Port Moresby,-9.44314,147.17972,283733
Ichihara,35.51667,140.08333,283531
Iksan,35.94389,126.95444,283501
Nha Trang,12.24507,109.19432,283441
Suzano,-23.5425,-46.31083,283314
Alwar,27.56246,76.625,283228
Cainta,14.5786,121.1222,283172
Pétionville,18.5125,-72.28528,283052
Maebashi-shi,36.39111,139.06083,282711
Bilāspur,22.07402,82.1566,282705
Logan City,-27.63917,153.10944,282673
Valparaíso,-33.03932,-71.62725,282448
Palu,-0.8917,119.8707,282431
Kupang,-10.1718,123.6075,282396
Zhytomyr,50.26487,28.67669,282192
Itagüí,6.18461,-75.59913,281853
Gebze,40.80276,29.43068,281436
Narsingdi,23.92298,90.71768,281080
Batna,35.55597,6.17414,280798
Tepic,21.50951,-104.89569,280592
Chuzhou,32.32194,118.29778,280582
Ichinomiya,35.3,136.8,280331
Tacna,-18.01465,-70.25362,280098
Hamburg-Nord,53.58935,9.984,280000
Mingora,34.7795,72.36265,279914
Effon Alaiye,7.65,4.91667,279319
Yoshkar-Ola,56.63877,47.89078,279100
Taganrog,47.23617,38.89688,279056
Santa Teresa,10.23409,-66.66308,278890
Horlivka,48.33576,38.05325,278550
Windsor,42.30008,-83.01654,278013
Ilesa,7.62789,4.74161,277904
Kostroma,57.76647,40.92686,277656
Gijón,43.53573,-5.66152,277554
Bari,41.11148,16.8554,277387
Khomeynī Shahr,32.6856,51.53609,277334
Sfax,34.74056,10.76028,277278
Nantes,47.21725,-1.55336,277269
Newark,40.73566,-74.17237,277140
Cuenca,-2.90055,-79.00453,276964
Owo,7.1962,5.58681,276574
Bahía Blanca,-38.71959,-62.27243,276546
Sukabumi,-6.91806,106.92667,276414
Braşov,45.64861,25.60613,276088
Komsomolsk-on-Amur,50.55034,137.00995,275908
Hakodate,41.77583,140.73667,275730
Bab Ezzouar,36.72615,3.18291,275630
Mokolo,10.74244,13.80227,275239
Caucaia,-3.73611,-38.65306,275019
Strasbourg,48.58392,7.74553,274845
Belfast,54.58333,-5.93333,274770
Kashi,39.47066,75.98951,274717
Ramadi,33.42056,43.30778,274539
Ichalkaranji,16.69117,74.46054,274383
Ibaraki,34.81641,135.56828,273992
Yao,34.61667,135.6,273213
Herāt,34.34817,62.19967,272806
Guantánamo,20.14444,-75.20917,272801
Nal’chik,43.49806,43.61889,272800
Baguio,16.41639,120.59306,272714
Petrópolis,-22.505,-43.17861,272691
Ar Rayyān,25.29194,51.42444,272465
Wiesbaden,50.08258,8.24932,272432
Montería,8.74798,-75.88143,272420
Kāshān,33.98308,51.43644,272359
Ljubljana,46.05108,14.50513,272220
Kakogawachō-honmachi,34.76943,134.82905,271634
Tasikmalaya,-7.3274,108.2207,271143
Bijapur,16.82442,75.71537,271064
Linyi,35.06306,118.34278,270669
San Pedro,14.3595,121.0473,270216
Münster,51.96236,7.62571,270184
Gelsenkirchen,51.5075,7.12283,270028
Ciudad Victoria,23.74174,-99.14599,269923
Greensboro,36.07264,-79.79198,269666
Moppo,34.79361,126.38861,268402
Russeifa,32.01778,36.04639,268237
Windhoek,-22.55941,17.08323,268132
Tshikapa,-6.41621,20.79995,267462
Kafr ad Dawwār,31.13385,30.12843,267370
Tokushima-shi,34.06583,134.55945,267345
Haifa,32.81841,34.9885,267300
Sterlitamak,53.62462,55.95015,267231
Hayil,27.52188,41.69073,267005
Chengzhong,30.94454,113.55284,265886
Wuzhou,23.48333,111.31667,265846
Hulan Ergi,47.20417,123.63333,265344
Aizawl,23.72894,92.71791,265331
Aachen,50.77664,6.08342,265208
Sumqayıt,40.58972,49.66861,265150
Mantampay,8.16667,124.21667,265032
Petrozavodsk,61.78491,34.34691,265025
El Daein,11.46186,26.12583,264734
Umuahia,5.52627,7.48959,264662
Mianyang,31.45934,104.75423,264136
Sivas,39.74833,37.01611,264022
Oaxaca de Juárez,17.06542,-96.72365,262566
Witbank,-25.87133,29.23323,262491
Eixample,41.38896,2.16179,262485
Aqtöbe,50.27969,57.20718,262457
Paraná,-31.73197,-60.5238,262295
Jālna,19.84102,75.88636,262034
Lal Bahadur Nagar,17.34769,78.55757,261987
Mönchengladbach,51.18539,6.44172,261742
Markham,43.86682,-79.2663,261573
Malmö,55.60587,13.00073,261548
Buffalo,42.88645,-78.87837,261310
Dewas,22.96585,76.05526,261218
Sincelejo,9.30472,-75.39778,261187
Tongliao,43.6125,122.26528,261110
Uberaba,-19.74833,-47.93194,260843
Stoke-on-Trent,53.00415,-2.18538,260419
Baranagar,22.64132,88.37727,260072
Aral,40.54184,81.26566,260000
Nakuru,-0.28333,36.06667,259903
Plano,33.01984,-96.69889,259841
Cần Thơ,10.03711,105.78825,259598
Augsburg,48.37154,10.89851,259196
Hiratsuka,35.32306,139.34222,259052
Gajuwaka,17.7,83.21667,258944
Jiujiang,29.70475,116.00206,258807
Jining,41.0275,113.10583,258757
Popayán,2.43823,-76.61316,258653
Najrān,17.49326,44.12766,258573
Lincoln,40.8,-96.66696,258379
Ciudad Obregón,27.48642,-109.94083,258162
Al Mukallā,14.54248,49.12424,258132
Pekalongan,-6.8886,109.6753,257945
Cumaná,10.45397,-64.18256,257783
Satna,24.58225,80.8248,257778
Henderson,36.0397,-114.98194,257729
Rio Branco,-9.97472,-67.81,257642
Etāwah,26.7778,79.02159,257448
Cascavel,-24.95583,-53.45528,257172
L'Hospitalet de Llobregat,41.35967,2.10028,257038
Ondo,7.09316,4.83528,257005
Chimoio,-19.11639,33.48333,256936
Espoo,60.2052,24.6522,256760
Latina,40.38897,-3.74569,256644
Bratsk,56.1325,101.61417,256600
Ensenada,31.86613,-116.59972,256565
Dzerzhinsk,56.24143,43.45539,256537
Tarsus,36.91876,34.8784,256482
Sari,36.56332,53.06009,255396
Durg,21.18333,81.28333,255283
Rivne,50.62308,26.22743,255106
Soledad de Graciano Sánchez,22.18306,-100.94083,255015
Laochenglu,42.94769,89.17886,254900
Ikot-Ekpene,5.17938,7.71082,254806
Heze,35.23929,115.47358,254602
Yamagata-shi,38.24056,140.36333,254538
Santa Catarina,25.67325,-100.45813,254472
Cirebon,-6.7063,108.557,254298
Novo Hamburgo,-29.67833,-51.13056,253841
Cox’s Bāzār,21.45388,91.96765,253788
Gdynia,54.51889,18.53188,253730
Fort Wayne,41.1306,-85.12886,253691
Carabanchel,40.39094,-3.7242,253678
Naihāti,22.89396,88.41521,253221
Vitória da Conquista,-14.86611,-40.83944,253137
Laohekou,32.38583,111.66778,253112
Richards Bay,-28.78301,32.03768,252968
Talcahuano,-36.72494,-73.11684,252968
Wolverhampton,52.58547,-2.12296,252791
El Fasher,13.62793,25.34936,252609
Thiès Nones,14.78333,-16.96667,252320
Dire Dawa,9.59306,41.86611,252279
Floridablanca,7.06222,-73.08644,252267
Suihua,46.63954,126.99508,252245
Barueri,-23.51056,-46.87611,251994
Borūjerd,33.8973,48.7516,251958
Eimsbüttel,53.56667,9.98333,251907
Liupanshui,26.59444,104.83333,251900
Qarchak,35.42867,51.57544,251834
Surco,-12.13951,-77.00615,251648
Taubaté,-23.02639,-45.55528,251641
Nanyang,32.99472,112.53278,251532
San Fernando,15.0286,120.6898,251248
Los Reyes La Paz,19.36357,-98.97707,251168
Morogoro,-6.82102,37.66122,250902
Governador Valadares,-18.85111,-41.94944,250878
Tirupati,13.63551,79.41989,250821
Banda Aceh,5.5577,95.3222,250757
Wafangdian,39.61833,122.00806,250591
Sonīpat,28.99587,77.01165,250521
Santa Clara,22.4,-79.96667,250512
Iwo,7.63527,4.18156,250443
Libertad,8.94417,125.50194,250353
Gombe,10.28969,11.16729,250258
Altona,53.55,9.93333,250192
Āvadi,13.1147,80.10981,250044
Praia Grande,-24.00583,-46.40278,250027
Niš,43.32472,21.90333,250000
Colonia del Valle,19.38611,-99.16204,250000
Port-de-Paix,19.9389,-72.83257,250000
Tel Aviv,32.08088,34.78057,250000
San Bernardo,-33.59217,-70.6996,249858
Várzea Grande,-15.64667,-56.1325,249752
Porto,41.14961,-8.61099,249633
Volta Redonda,-22.52306,-44.10417,249580
Kirovohrad,48.5132,32.2597,249454
Santa Maria,-29.68417,-53.80694,249219
Fukui-shi,36.06443,136.22257,248707
Dniprodzerzhyns’k,48.51134,34.6021,248575
Montpellier,43.61092,3.87723,248252
Jimeta,9.28333,12.46667,248148
Częstochowa,50.79646,19.12409,248125
Tiruvottiyūr,13.15823,80.30181,248059
Oshawa,43.90012,-78.84957,247989
Palmira,3.53944,-76.30361,247986
Bukhara,39.77472,64.42861,247644
Jersey City,40.72816,-74.07764,247597
Sāgar,23.84251,78.74386,247333
Plymouth,50.37153,-4.14305,247297
Udon Thani,17.41567,102.78589,247231
Chemnitz,50.8357,12.92922,247220
Ica,-14.06777,-75.72861,246844
Orsk,51.20487,58.56685,246836
Vanderbijlpark,-26.71171,27.83795,246754
Nottingham,52.9536,-1.15047,246654
San Cristóbal,7.76694,-72.225,246583
Mito-shi,36.34139,140.44667,246538
Rizhao,35.4275,119.45528,246387
Southampton,50.90395,-1.40428,246201
A Coruña,43.37135,-8.396,246056
Mau,25.94167,83.56111,246050
Shimonoseki,33.95,130.95,245786
Juliaca,-15.5,-70.13333,245675
Nicolás Romero,19.63658,-99.30682,245383
Ji’an,27.11716,114.97927,245000
Gorgān,36.84165,54.44361,244937
Nizhnevartovsk,60.9344,76.5531,244937
Saint Petersburg,27.77086,-82.67927,244769
Braunschweig,52.26594,10.52673,244715
Hebi,35.89917,114.1925,244662
Bago,17.33521,96.48135,244376
Bihār Sharīf,25.19729,85.52374,244230
Baruta,10.43398,-66.87662,244216
Puente de Vallecas,40.39354,-3.662,244151
Trabzon,41.005,39.72694,244083
Reading,51.45625,-0.97113,244070
Jessore,23.16971,89.21371,243987
Manisa,38.61202,27.42647,243971
Chula Vista,32.64005,-117.0842,243916
Louisville,38.25424,-85.75941,243639
Santa Luzia,-19.76972,-43.85139,243503
Kunsan,35.97861,126.71139,243406
Wŏnju,37.35139,127.94528,243387
Angarsk,52.53667,103.88639,243158
Mar’ino,55.65,37.71667,243000
Hāpur,28.73041,77.78141,242920
Norfolk,36.84681,-76.28522,242803
Bhatinda,30.20712,74.9414,242800
Deir ez-Zor,35.33588,40.14084,242565
Berbera,10.43959,45.01432,242344
Ojo de Agua,19.68028,-99.01,242272
Gatineau,45.47723,-75.70164,242124
Yibin,28.76667,104.62383,242111
Neuquén,-38.95161,-68.0591,242092
Novorossiysk,44.72439,37.76752,241856
Tehuacán,18.46148,-97.39282,241429
Aswan,24.09082,32.89942,241261
Farrukhābād,27.39048,79.58007,241152
Sancaktepe,41.00244,29.23187,241000
Takasaki,36.33333,139.01667,240857
Anantapur,14.6794,77.59877,240442
Buenaventura,3.8801,-77.03116,240387
Lankaran,38.75428,48.85062,240300
Fuji,35.16667,138.68333,240014
Halle Neustadt,51.47924,11.91605,240000
Xiantao,30.3708,113.44294,239406
Hachinohe,40.5,141.5,239046
Vaughan,43.8361,-79.49827,238866
Gravataí,-29.94218,-50.99278,238778
Neyagawa,34.76615,135.62759,238549
Nāgarpur,24.05783,89.87696,238422
Orlando,28.53834,-81.37924,238300
Kurume,33.31667,130.51667,238197
Balıkesir,39.64917,27.88611,238151
Temuco,-38.73965,-72.59842,238129
Krefeld,51.33921,6.58615,237984
As Sīb al Jadīdah,23.67027,58.18911,237816
Bārāsat,22.22516,88.45086,237783
Århus,56.15674,10.21076,237551
Sasebo,33.15917,129.72278,237444
Batangas,13.7567,121.0584,237370
Uruapan,19.41116,-102.05644,237308
Al Jubayl,27.01122,49.65825,237274
Pathein,16.77919,94.73212,237089
Tegal,-6.8694,109.1402,237084
Djougou,9.70853,1.66598,237040
Sylhet,24.89904,91.87198,237000
Ratlām,23.33033,75.04032,236843
Košice,48.71395,21.25808,236563
Chernivtsi,48.29149,25.94034,236250
Chandler,33.30616,-111.84125,236123
Dera Ghazi Khan,30.05614,70.63477,236093
Laredo,27.50641,-99.50754,236091
Yuci,37.68028,112.73194,235929
Sahiwal,30.66667,73.1,235695
Ternopil’,49.55589,25.60556,235676
Gasteiz / Vitoria,42.84998,-2.67268,235661
Yakutsk,62.03389,129.73306,235600
Caruaru,-8.28333,-35.97611,235371
Qinā,26.16418,32.72671,235362
Boa Vista,2.81972,-60.67333,235150
Kediri,-7.81667,112.01667,235143
Derby,52.92277,-1.47663,235029
Georgetown,6.80448,-58.15527,235017
Ramagundam,18.755,79.474,235000
Kismayo,-0.35817,42.54536,234852
Ibb,13.96667,44.18333,234837
Türkmenabat,39.07328,63.57861,234817
Granada,37.18817,-3.60667,234325
Nizhnekamsk,55.63657,51.82447,234297
Porto-Novo,6.49646,2.60359,234168
Halle (Saale),51.5,12,234107
Kitchener,43.42537,-80.5112,233700
Centurion,-25.85891,28.18577,233386
Tagum,7.44778,125.80778,233254
Madison,43.07305,-89.40123,233209
Hamburg-Mitte,53.55,10.01667,233144
Takoradi,4.88447,-1.75536,232919
Kiel,54.32133,10.13489,232758
Linfen,36.08889,111.51889,232566
Bordeaux,44.84044,-0.5805,231844
Gangānagar,29.92009,73.87496,231838
Chigasaki,35.32611,139.40389,231657
Gent,51.05,3.71667,231493
Taytay,14.55883,121.13285,231460
Sōka,35.82028,139.80444,231445
Ngaoundéré,7.32765,13.58472,231357
Suncheon,34.94808,127.48947,230796
Coatzacoalcos,18.13346,-94.44242,230717
Syktyvkar,61.67642,50.80994,230139
Elche,38.26218,-0.70107,230112
Marka,1.71594,44.77166,230100
Nukus,42.45306,59.61028,230006
Ḩalwān,29.84144,31.30084,230000
Magdeburg,52.12773,11.62916,229826
Winston-Salem,36.09986,-80.24422,229617
Lubbock,33.57786,-101.85517,229573
Nawābshāh,26.24833,68.40955,229504
Baton Rouge,30.45075,-91.15455,229493
Tripoli,34.43667,35.84972,229398
Bharatpur,27.21731,77.49009,229384
Longueuil,45.53121,-73.51806,229330
Atsugi,35.43889,139.35972,229199
Croix des Bouquets,18.57512,-72.22302,229127
Magdalena Contreras,19.33212,-99.21118,228927
Uitenhage,-33.75757,25.3971,228912
Ploieşti,44.95,26.01667,228851
Sungai Petani,5.647,100.48772,228843
Binjai,3.6001,98.4854,228763
Lucena,13.93139,121.61722,228758
Ipatinga,-19.46833,-42.53667,228746
Karīmnagar,18.43915,79.12856,228745
Gomez Palacio,25.56985,-103.49588,228577
Rạch Giá,10.01245,105.08091,228356
Durham,35.99403,-78.89862,228330
Lille,50.63297,3.05858,228328
Miri,4.4148,114.0089,228212
Ciudad Lineal,40.45455,-3.64808,228171
Bexley,51.44162,0.14866,228000
Sumaré,-22.82194,-47.26694,227977
Damanhūr,31.03408,30.46823,227943
Nassau,25.05823,-77.34306,227940
San Lorenzo,-25.33968,-57.50879,227876
Iquique,-20.22036,-70.13913,227499
Kremenchuk,49.06802,33.42041,227494
Puducherry,11.93381,79.82979,227411
Sosnowiec,50.28682,19.10385,227295
Diez de Octubre,23.0881,-82.3597,227293
Al Minyā,28.10988,30.7503,227150
Staryy Oskol,51.29667,37.84167,226977
Liaocheng,36.45596,115.97766,226930
Garland,32.91262,-96.63888,226876
Gusau,12.17024,6.66412,226857
Neue Neustadt,52.15,11.63333,226851
Radom,51.40253,21.14714,226794
Glendale,33.53865,-112.18599,226721
Shrīrāmpur,22.75278,88.34222,226317
Fendou,46.64142,124.86283,226298
Sabzevar,36.2126,57.68191,226183
Ajman,25.41111,55.43504,226172
Huambo,-12.77611,15.73917,226145
Groznyy,43.31195,45.68895,226100
Geelong,-38.14711,144.36069,226034
Rāichūr,16.2047,77.354,225962
Huanggang,23.67704,116.99961,225956
Quthbullapur,17.50107,78.45818,225816
Mubi,10.26761,13.26436,225705
Bukavu,-2.49077,28.84281,225389
Lexington,37.98869,-84.47772,225366
Juazeiro do Norte,-7.21306,-39.31528,225230
Reno,39.52963,-119.8138,225221
Mymensingh,24.75636,90.40646,225126
Karnāl,29.69197,76.98448,225049
Roodepoort,-26.1625,27.8725,225000
Tanga,-5.06893,39.09875,224876
Jingling,30.65,113.1,224871
Sucre,-19.03332,-65.26274,224838
Nacala,-14.56257,40.68538,224795
Hialeah,25.8576,-80.27811,224669
Ashdod,31.79213,34.64966,224656
Minami-rinkan,35.48333,139.45,224015
Oviedo,43.36029,-5.84476,224005
Paramaribo,5.86638,-55.16682,223757
Adıyaman,37.76441,38.27629,223744
Ara,25.56314,84.67137,223676
Okāra,30.80806,73.44583,223648
Nārāyanganj,23.61352,90.50298,223622
Tongchuan,35.08056,109.08972,223603
Imphal,24.80805,93.9442,223523
Najafābād,32.6344,51.3668,223450
Paradise,36.09719,-115.14666,223167
Qarshi,38.86056,65.78905,222898
Gosāba,22.16547,88.8007,222764
Puerto Princesa,9.73917,118.73528,222673
Xintai,35.90056,117.75194,222459
Santa Cruz de Tenerife,28.46824,-16.25462,222417
Haeju,38.04056,125.71472,222396
Graz,47.06667,15.45,222326
Chesapeake,36.81904,-76.27494,222209
Ikire,7.37241,4.18739,222160
Embu,-23.64889,-46.85222,221733
Formosa,-26.17753,-58.17814,221383
Shakhty,47.70911,40.21443,221312
Blagoveshchensk,50.27961,127.5405,221296
Olongapo,14.82917,120.28278,221178
Banja Luka,44.77583,17.18556,221106
Sant Martí,41.41814,2.19933,221029
Nīshābūr,36.21329,58.79575,220929
Wuxue,29.85058,115.5525,220661
Babruysk,53.1384,29.2214,220517
Rishon LeẔiyyon,31.97102,34.78939,220492
Cabanatuan City,15.48586,120.96648,220250
Fuencarral-El Pardo,40.4984,-3.7314,220085
Mirzāpur,25.14582,82.56975,220029
Messina,38.19394,15.55256,219948
Takarazuka,34.79936,135.35697,219789
Kharagpur,22.33971,87.32501,219665
Dhanbād,23.80199,86.44324,219636
Thanjāvūr,10.78523,79.13909,219571
Badalona,41.45004,2.24741,219547
Ageoshimo,35.97145,139.61382,219401
Binangonan,14.4646,121.1929,219204
Oberhausen,51.47311,6.88074,219176
Chon Buri,13.3622,100.98345,219164
Verona,45.4299,10.98444,219103
Prokop’yevsk,53.9059,86.719,219000
Eldoret,0.52036,35.26993,218446
Wuhai,39.68442,106.81583,218427
Bertoua,4.57728,13.68459,218111
Imperatriz,-5.52639,-47.49167,218106
San Pedro de Macorís,18.46156,-69.29718,217899
Amarnāth,19.2,73.16667,217780
Taiping,4.85,100.73333,217647
Scottsdale,33.50921,-111.89903,217385
Alor Setar,6.12104,100.36014,217368
Purwokerto,-7.42139,109.23444,217222
Colombo,-25.29167,-49.22417,217000
North Las Vegas,36.19886,-115.1175,216961
Jamaica,40.69149,-73.80569,216866
Rybinsk,58.0446,38.84259,216724
Hobart,-42.87936,147.32941,216656
Santa Rosa,14.31222,121.11139,216650
Kisumu,-0.10221,34.76171,216479
Irving,32.81402,-96.94889,216290
Imus,14.42972,120.93667,216099
Vykhino-Zhulebino,55.70196,37.81178,216000
Freiburg,47.9959,7.85222,215966
Galkissa,6.8293,79.863,215941
Purwakarta,-6.55694,107.44333,215803
Zelenograd,55.9825,37.18139,215727
Mirpur Khas,25.5251,69.0159,215657
Daloa,6.87735,-6.45022,215652
Mekele,13.49667,39.47528,215546
Biysk,52.53639,85.20722,215430
Concepción,-36.82699,-73.04977,215413
Novi Sad,45.25167,19.83694,215400
Jinzhou,39.1,121.71667,215386
Mucumpiz,8.41667,-71.13333,215259
Velikiy Novgorod,58.52131,31.27104,215062
Owerri,5.48333,7.03041,215038
Centralniy,59.93111,30.36072,214625
Los Mochis,25.79535,-108.99244,214601
Shagamu,6.8485,3.64633,214558
Taboão da Serra,-23.62611,-46.79167,214523
Fremont,37.54827,-121.98857,214089
Nazrēt,8.55,39.26667,213995
Nāgercoil,8.17731,77.43437,213858
Luts’k,50.75932,25.34244,213661
Bergen,60.39299,5.32415,213585
Brăila,45.26667,27.98333,213569
Naz̧arābād,35.95411,50.60607,213388
Guangyuan,32.44201,105.823,213365
Būkān,36.521,46.2089,213331
Jacareí,-23.30528,-45.96583,213110
Chōfugaoka,35.65924,139.54837,212977
Loa Janan,-0.58295,117.09503,212816
Rancagua,-34.17083,-70.74444,212695
Mokotów,52.1934,21.03487,212670
Irvine,33.66946,-117.82311,212375
Bukit Mertajam,5.36301,100.4667,212329
Lipa City,13.9411,121.1631,212287
Birmingham,33.52066,-86.80249,212237
Marília,-22.21389,-49.94583,212218
Lübeck,53.86893,10.68729,212207
Cartagena,37.60512,-0.98623,211996
Esenyurt,41.02697,28.67732,211330
Kırıkkale,39.84528,33.50639,211138
Hailar,49.2,119.7,211066
Terrassa,41.56667,2.01667,210941
Abha,18.21639,42.50528,210886
Tarhuna,32.43501,13.6332,210697
Matsumoto,36.23333,137.96667,210667
Rochester,43.15478,-77.61556,210565
Daliang,22.84067,113.2503,210411
Qui Nhon,13.77648,109.22367,210338
Pāli,25.77276,73.32335,210103
Arroyo Naranjo,23.03611,-82.37167,210053
Arroyo Naranjo,23.0144,-82.3031,210053
Kostanay,53.21435,63.62463,210000
Antakya,36.20655,36.15722,210000
Bogra,24.85098,89.37108,210000
San Bernardino,34.10834,-117.28977,209924
Chuncheon,37.87472,127.73417,209746
Vũng Tàu,10.34599,107.08426,209683
Eindhoven,51.44083,5.47778,209620
Pematangsiantar,2.9595,99.0687,209614
Kanggye-si,40.96946,126.58523,209530
Presidente Prudente,-22.12556,-51.38889,209502
Sanming,26.24861,117.61861,209444
Sohag,26.55695,31.69478,209419
Rennes,48.11198,-1.67429,209375
São Leopoldo,-29.76028,-51.14722,209229
Ijebu-Ode,6.81944,3.91731,209175
Yamunānagar,30.12796,77.28371,208931
Spokane,47.65966,-117.42908,208916
Nakhon Ratchasima,14.97066,102.10196,208781
Toruń,53.01375,18.59814,208717
Oruro,-17.98333,-67.15,208684
Kielce,50.87033,20.62752,208598
Rewa,24.53399,81.29596,208461
Gilbert,33.35283,-111.78903,208453
La Romana,18.42733,-68.97285,208437
Gaborone,-24.65451,25.90859,208411
Hangu,39.24889,117.78917,208369
Waitakere,-36.91754,174.65773,208100
Lobito,-12.3644,13.53601,207932
North Shore,-36.8,174.75,207865
Ciputat,-6.2375,106.69556,207858
Sirjan,29.45137,55.6809,207645
Arlington,38.88101,-77.10428,207627
San Pablo,14.0683,121.3256,207577
Jerez de la Frontera,36.68645,-6.13606,207532
Ciampea,-6.55472,106.70083,207212
Kasukabe,35.98122,139.74424,206915
Sumedang Utara,-6.85,107.91667,206746
Oradea,47.06667,21.93333,206614
Annaba,36.9,7.76667,206570
Sabadell,41.54329,2.10942,206493
Móstoles,40.32234,-3.86496,206478
Toamasina,-18.1492,49.40234,206373
Dinājpur,25.62745,88.63779,206234
Buenavista,19.60833,-99.16944,206081
Montgomery,32.36681,-86.29997,205764
Itabuna,-14.78556,-39.28028,205660
Kishiwada,34.46667,135.36667,205561
Campeche,19.83803,-90.5277,205212
Suzhou,33.63611,116.97889,205130
São Carlos,-22.0175,-47.89083,205035
Alcalá de Henares,40.48205,-3.35996,204574
Gaoping,30.77576,106.10294,204368
Numazu,35.1,138.86667,204318
Richmond,37.55376,-77.46026,204214
Ivano-Frankivs’k,48.9215,24.70972,204200
Secunderabad,17.50427,78.54263,204182
Jōetsu,37.14828,138.23642,204137
Debrecen,47.53333,21.63333,204124
Bīdar,17.91331,77.53011,204071
Padova,45.40797,11.88586,203725
Las Tunas,20.96167,-76.95111,203684
Hortolândia,-22.85833,-47.22,203533
Bayamón,18.39856,-66.15572,203499
Daqing,46.58333,125,203488
Des Moines,41.60054,-93.60911,203433
Agartala,23.83605,91.27939,203264
Erfurt,50.9787,11.03283,203254
North Glendale,34.16056,-118.26452,203201
Munger,25.37556,86.47352,203163
Edéa,3.8,10.13333,203149
Vasyl'evsky Ostrov,59.94091,30.25377,203058
Odawara,35.25556,139.15972,203035
Achiaman,5.7,-0.33333,202932
Osmaniye,37.07417,36.24778,202837
Burnaby,49.26636,-122.95263,202799
Bābol,36.55132,52.67895,202796
Burhānpur,21.30898,76.22996,202695
Tampere,61.49911,23.78712,202687
Yiyang,28.58917,112.32833,202608
Çorlu,41.15917,27.8,202578
Harburg,53.46057,9.98388,202571
Linxia Chengguanzhen,35.60028,103.20639,202402
Barisāl,22.70497,90.37013,202242
Cileungsir,-6.39472,106.95917,202190
Nadiād,22.69385,72.86157,202067
Mossoró,-5.1875,-37.34417,202005
Pskov,57.8136,28.3496,201990
Yuncheng,35.02306,110.99278,201950
Al Khums,32.64861,14.26191,201943
Chiniot,31.72,72.97889,201781
Itapevi,-23.54889,-46.93417,201748
Chhapra,25.781,84.73089,201597
Rengasdengklok,-6.15917,107.29806,201463
Sete Lagoas,-19.46583,-44.24667,201334
La Pintana,-33.58331,-70.63419,201178
Modesto,37.6391,-120.99688,201165
Chiang Mai,18.79038,98.98468,200952
Petropavlovsk,54.87279,69.143,200920
Cabimas,10.38828,-71.43993,200818
Dindigul,10.36896,77.98036,200797
Fayetteville,35.05266,-78.87836,200564
Nicosia,35.17531,33.3642,200452
Santo Domingo de los Colorados,-0.25305,-79.17536,200421
Jalālābād,34.42647,70.45153,200331
Ugep,5.80854,8.08159,200276
Yanbu‘ al Baḩr,24.08912,38.06374,200161
Charleroi,50.41136,4.44448,200132
São José,-28.21171,-49.1632,200000
Taldyqorghan,45,77.91667,200000
Az Zāwīyah,32.7571,12.72764,200000
Osh,40.51506,72.80826,200000
Shahkot,31.5709,73.48531,200000
Severnyy,55.93583,37.54889,200000
Pokhara,28.26689,83.96851,200000
Thika,-1.03326,37.06933,200000
Ladner,49.08938,-123.08241,200000
Oral,51.23333,51.36667,200000
Petaẖ Tiqwa,32.08707,34.88747,200000
Sīkar,27.61206,75.13996,199932
Tilburg,51.55551,5.0913,199613
Balakovo,52.02782,47.8007,199572
Armavir,44.9892,41.1234,199548
Kamoke,31.97444,74.22444,199531
Saidpur,25.77769,88.89169,199422
Āmol,36.46961,52.35072,199382
Shreveport,32.52515,-93.75018,199311
Bila Tserkva,49.80939,30.11209,199163
Akron,41.08144,-81.51901,199110
Dudley,52.5,-2.08333,199059
Hagen,51.36081,7.47168,198972
Saskatoon,52.11679,-106.63452,198958
Gliwice,50.29761,18.67658,198835
Yan’an Beilu,44.00782,87.30461,198776
Malolos,14.8443,120.81039,198748
Bulandshahr,28.40296,77.85824,198612
Capiatá,-25.3552,-57.44545,198553
Pamplona,42.81687,-1.64323,198491
Purnia,25.77895,87.47422,198453
Kaiyuan,23.69767,103.30372,198423
Tacoma,47.25288,-122.44429,198397
Rostock,54.0887,12.14049,198293
Sibu,2.3,111.81667,198239
Machala,-3.25861,-79.96053,198123
Tapachula,14.90696,-92.26185,197961
Aurora,41.76058,-88.32007,197899
Oxnard,34.1975,-119.17705,197899
Hospet,15.26954,76.3871,197846
Fuenlabrada,40.28419,-3.79415,197836
Mentougou,39.93819,116.09307,197772
Talca,-35.4264,-71.65542,197479
Gurgaon,28.4601,77.02635,197340
Northampton,52.25,-0.88333,197322
Ðà Lạt,11.94646,108.44193,197000
Bīrjand,32.86628,59.22114,196982
San-Pédro,4.74851,-6.6363,196751
Vientiane,17.96667,102.6,196731
Kure,34.23222,132.56658,196624
İzmit,40.76694,29.91694,196571
Reims,49.25,4.03333,196565
Laâyoune / El Aaiún,27.1418,-13.18797,196331
Palmas,-10.16745,-48.32766,196272
Icheon-si,37.27917,127.4425,196230
Townsville,-19.26639,146.80569,196219
Sambhal,28.58323,78.56689,196109
Fontana,34.09223,-117.43505,196069
Americana,-22.73917,-47.33139,196022
Engel’s,51.48389,46.10528,196011
Ghandinagar,23.21667,72.68333,195985
Yonkers,40.93121,-73.89875,195976
Burgas,42.50606,27.46781,195966
Murwāra,23.83677,80.39482,195856
Monclova,26.90687,-101.42056,195764
Nagaoka,37.45,138.85,195318
Guri-si,37.5986,127.1394,195236
Coro,11.4045,-69.67344,195227
Nishi-Tokyo-shi,35.72526,139.5383,195164
Xinhui,22.456,113.0482,195129
Mobile,30.69436,-88.04305,195111
Kendari,-3.9778,122.51507,195006
Petrolina,-9.39861,-40.50083,194650
Yamoussoukro,6.82055,-5.27674,194530
Kassel,51.31667,9.5,194501
Nāngloi Jāt,28.6786,77.06749,194363
Severodvinsk,64.5635,39.8302,194292
Portsmouth,50.79899,-1.09125,194150
Soledad Díez Gutiérrez,22.18778,-100.94192,194006
Nnewi,6.01986,6.91477,193987
Parung,-6.42139,106.73306,193898
Divinópolis,-20.13889,-44.88389,193832
Başakşehir,41.09307,28.80203,193750
Luton,51.87967,-0.41748,193669
Ezhou,30.4,114.83333,193652
Maracanaú,-3.87667,-38.62556,193529
Itami,34.78427,135.40126,193524
Little Rock,34.74648,-92.28959,193524
Thành Phố Nam Định,20.43389,106.17729,193499
Moreno Valley,33.93752,-117.23059,193365
Uji,34.89044,135.80325,192925
Machilīpatnam,16.18747,81.13888,192827
Ciudad Madero,22.27228,-97.83623,192736
Hyesan-si,41.40167,128.17778,192680
Bayamo,20.37917,-76.64333,192632
Katihar,25.53852,87.57044,192555
Tanjungpinang,0.91667,104.45,192493
Pār Naogaon,24.80418,88.94875,192464
Newcastle upon Tyne,54.97328,-1.61396,192382
Klaipėda,55.71722,21.1175,192307
Zabrze,50.32492,18.78576,192177
Bojnūrd,37.47473,57.32903,192041
Guatire,10.4762,-66.54266,191903
Humen,22.81899,113.67306,191891
Sidi Bel Abbès,35.18994,-0.63085,191769
Glendale,34.14251,-118.25508,191719
Hat Yai,7.00836,100.47668,191696
Haicheng,40.85158,122.74754,191651
Suzuka,34.88333,136.58333,191477
Zinder,13.80716,8.9881,191424
Curug,-6.26583,106.55639,191406
Barrancabermeja,7.06528,-73.85472,191403
Zlatoust,55.17111,59.65083,191366
Ormoc,11.00639,124.6075,191200
Bhiwāni,28.79776,76.13833,190855
Amarillo,35.222,-101.8313,190695
Preston,53.76667,-2.71667,190687
Zoucheng,35.40056,116.96556,190537
Cork,51.89797,-8.47061,190384
Al Fallūjah,33.34913,43.78599,190159
Ise-Ekiti,7.46478,5.42333,190063
Vantaa,60.29414,25.04099,190058
Kōfu-shi,35.66389,138.56833,190000
Huntington Beach,33.6603,-117.99923,189992
Columbus,32.46098,-84.98771,189885
Sādiqābād,28.30623,70.13065,189876
Banī Suwayf,29.07441,31.09785,189624
Sunrise Manor,36.21108,-115.07306,189372
Syzran’,53.1585,48.4681,189338
Bytom,50.34802,18.93282,189186
Mwene-Ditu,-7.00906,23.45278,189177
Panalanoy,11.25111,125.00639,189090
Izumi,34.48333,135.43333,189085
Santarém,-2.44306,-54.70833,189047
Wanxian,30.81544,108.37089,188980
Kabwe,-14.4469,28.44644,188979
Quelimane,-17.87861,36.88833,188964
San Fernando del Valle de Catamarca,-28.46957,-65.78524,188812
Almería,36.83814,-2.45974,188810
Camaçari,-12.6975,-38.32417,188758
Labuhanbajo,-8.4964,119.8877,188724
Cibinong,-6.48167,106.85417,188663
Donghai,22.94593,115.64204,188602
Boyeros,23.0072,-82.4017,188593
Baiyin,36.54696,104.17023,188533
Mabalacat City,15.22303,120.57117,188050
Grand Rapids,42.96336,-85.66809,188040
Santa Bárbara d'Oeste,-22.75361,-47.41361,188000
Kultali,21.9,88.4,187942
Noorder-Paarl,-33.70468,18.96552,187865
Praga Południe,52.24424,21.08545,187845
Rio Grande,-32.035,-52.09861,187838
Mohammedia,33.68607,-7.38298,187708
Sutton,51.35,-0.2,187600
Qo‘qon,40.52861,70.9425,187477
Petropavlovsk-Kamchatsky,53.04444,158.65076,187282
Oxnard Shores,34.19084,-119.2415,187235
Puerto Vallarta,20.617,-105.23018,187134
Trieste,45.64325,13.7903,187056
Cachoeiro de Itapemirim,-20.84889,-41.11278,187019
Kikwit,-5.04098,18.81619,186991
Pinar del Río,22.4175,-83.69806,186990
Pagadian,7.8257,123.437,186852
Pābna,24.00644,89.2372,186781
Cienfuegos,22.14957,-80.44662,186644
Beersheba,31.25181,34.7913,186600
Salt Lake City,40.76078,-111.89105,186440
Rāe Bareli,26.2191,81.24499,186433
Springs,-26.25,28.4,186394
Shibīn al Kawm,30.55258,31.00904,186345
Hitachi,36.6,140.65,186307
Antsirabe,-19.86586,47.03333,186253
Zawiya,32.75222,12.72778,186123
Madiun,-7.6298,111.5239,186099
Haridwar,29.94791,78.16025,186079
Leganés,40.32718,-3.7635,186066
Ad-Damazin,11.7891,34.3592,186051
Arica,-18.4746,-70.29792,185999
Le Havre,49.4938,0.10767,185972
Nogales,31.30862,-110.94217,185882
Singrauli,24.19973,82.67535,185580
Richmond Hill,43.87111,-79.43725,185541
Dún Laoghaire,53.29395,-6.13586,185400
Donostia / San Sebastián,43.31283,-1.97499,185357
Hamm,51.68033,7.82089,185327
Jamaame,0.06968,42.74497,185270
Moratuwa,6.773,79.8816,185031
Kütahya,39.42417,29.98333,185008
Mainz,49.98419,8.2791,184997
Meycauayan,14.73694,120.96083,184839
Brescia,45.53558,10.21472,184826
Zaoyang,32.12722,112.75417,184509
Milton Keynes,52.04172,-0.75583,184506
Jūnāgadh,21.51966,70.45981,184447
Mutare,-18.9707,32.67086,184205
Mbandaka,0.04865,18.26034,184185
Pemalang,-6.9,109.36667,184149
Quanzhou,24.91389,118.58583,184143
San Luis,-33.29501,-66.33563,183982
Genève,46.20222,6.14569,183981
Tarlac City,15.48017,120.59794,183930
Būrewāla,30.16667,72.65,183915
Baishan,41.93853,126.41965,183880
Sūjāngarh,27.7,74.46667,183808
Aberdeen,57.14369,-2.09814,183790
Zaozhuang,34.86472,117.55417,183665
Kushiro,42.975,144.37472,183612
Cergy-Pontoise,49.03894,2.07805,183430
Çorum,40.54889,34.95333,183418
Elūru,16.71084,81.10559,183387
Pātan,27.67658,85.31417,183310
Manta,-0.96212,-80.71271,183166
Lembang,-6.81167,107.6175,183130
Bhusāwal,21.04658,75.78175,183001
Pak Kret,13.91301,100.49883,182926
Mitaka-shi,35.68351,139.55963,182901
Khandwa,21.82451,76.35202,182841
Santander,43.46472,-3.80444,182700
Liège,50.63373,5.56749,182597
Cúa,10.15892,-66.88575,182558
Sakura,35.71667,140.23333,182549
Kamensk-Ural’skiy,56.4185,61.9329,182500
Itaboraí,-22.74444,-42.85944,182498
Blida,36.47004,2.8277,182447
Birātnagar,26.4831,87.28337,182324
Carletonville,-26.36094,27.39767,182304
Bahraich,27.5743,81.59588,182218
Barrie,44.40011,-79.66634,182041
Monywa,22.10856,95.13583,182011
Richmond,49.17003,-123.13683,182000
Prato,43.87309,11.08278,181820
Probolinggo,-7.7543,113.2159,181656
Sirsa,29.53489,75.02898,181639
Guarenas,10.46736,-66.60663,181612
Tallahassee,30.43826,-84.28073,181376
Anda,46.40202,125.31454,181271
Saarbrücken,49.2354,6.98165,181227
Shangqiu,34.45,115.65,181218
Wādī as Sīr,31.95126,35.81979,181212
Groningen,53.21917,6.56667,181194
Linz,48.30639,14.28611,181162
Taranto,40.41639,17.25478,181082
Worcester,42.26259,-71.80229,181045
Newport News,36.97876,-76.428,180719
Malacca,2.196,102.2405,180671
Chandannagar,22.86225,88.36796,180623
Kang-neung,37.75556,128.89611,180611
Baharampur,24.10473,88.25155,180547
Dodoma,-6.17221,35.73947,180541
Rio Claro,-22.41139,-47.56139,180147
Tāngāil,24.24984,89.91655,180144
Matadi,-5.79949,13.44068,180109
Huntsville,34.73037,-86.5861,180105
Castelló de la Plana,39.98333,-0.03333,180005
Atyrau,47.11667,51.88333,180000
Yasenevo,55.60686,37.51991,180000
Yangju,37.83311,127.06169,179923
Indaiatuba,-23.08842,-47.2119,179911
Surendranagar,22.72706,71.64856,179628
Varāmīn,35.3242,51.6457,179603
Dos Quebradas,4.83916,-75.66727,179583
Passo Fundo,-28.26278,-52.40667,179529
Xianning,29.88333,114.21667,179494
Legaspi,13.13722,123.73444,179481
Sayibage,41.76055,86.15231,179465
Cotabato,7.22361,124.24639,179433
Podol’sk,55.42419,37.55472,179400
Vizianagaram,18.11692,83.41148,179358
Ila Orangun,8.01714,4.90421,179192
Qianjiang,30.421,112.8919,179079
Chenzhou,25.8,113.03333,179038
Burgos,42.35022,-3.67527,178966
Klerksdorp,-26.85213,26.66672,178921
Si Racha,13.17372,100.93111,178916
Tiaret,35.37103,1.31699,178915
Knoxville,35.96064,-83.92074,178874
Amadora,38.75382,-9.23083,178858
Kamirenjaku,35.70034,139.55665,178739
Saki,8.66762,3.39393,178677
Chlef,36.16525,1.33452,178616
Anjō,34.95828,137.08054,178402
Spring Valley,36.10803,-115.245,178395
Kutaisi,42.26791,42.69459,178338
Providence,41.82399,-71.41283,178042
Habana del Este,23.15917,-82.33056,178041
Sunderland,54.90465,-1.38222,177965
Jingzhou,30.35028,112.19028,177878
Proddatūr,14.7502,78.54813,177797
Sittwe,20.14624,92.89835,177743
Norwich,52.62783,1.29834,177636
Sants-Montjuïc,41.37263,2.1546,177636
Ar Raqqah,35.95283,39.00788,177636
Meiktila,20.87776,95.85844,177442
Loum,4.7182,9.7351,177429
Vellore,12.9184,79.13255,177081
Hugli,22.90877,88.39674,177005
Alleppey,9.49004,76.3264,176783
Santa Ana,13.99417,-89.55972,176661
Malāyer,34.2969,48.8235,176573
Bielsko-Biala,49.82245,19.04686,176515
Yuzhno-Sakhalinsk,46.95407,142.73603,176484
Almere Stad,52.37025,5.21413,176432
Santa Clarita,34.39166,-118.54259,176320
Split,43.50891,16.43915,176314
Saint-Étienne,45.43389,4.39,176280
Amroha,28.90314,78.46984,176253
Regina,50.45008,-104.6178,176183
Zhenzhou,32.28034,119.16999,176006
Saint-Louis,16.01793,-16.48962,176000
Turku,60.45148,22.26869,175945
Xindi,29.81667,113.46667,175761
Bella Vista,18.45539,-69.9454,175683
Tsukuba,36.2,140.1,175589
Sāveh,35.0213,50.3566,175533
Grand Prairie,32.74596,-96.99778,175396
Khvoy,38.5503,44.9521,175370
Mzuzu,-11.46556,34.02071,175345
Siverek,37.75503,39.31667,175341
Jiutai,44.1525,125.83278,175115
Brownsville,25.90175,-97.49748,175023
Hirosaki,40.59306,140.4725,174972
Naga,13.61917,123.18139,174931
Cotia,-23.60389,-46.91917,174828
Tomakomai,42.63694,141.60333,174806
George,-33.963,22.46173,174582
Pamulang,-6.34278,106.73833,174557
Poza Rica de Hidalgo,20.53315,-97.45946,174526
Bo,7.96472,-11.73833,174354
Pathankot,32.27306,75.65256,174306
Hadano,35.37111,139.22361,174281
Bozhou,33.87722,115.77028,174140
Cikupa,-6.23639,106.50833,174041
Bhind,26.56671,78.78728,174035
Puerto Cabello,10.47306,-68.0125,174000
Obihiro,42.91722,143.20444,173890
Ube,33.94306,131.25111,173733
Kramators’k,48.72305,37.55629,173700
Cuajimalpa,19.35993,-99.29388,173625
San Pablo de las Salinas,19.6667,-99.09527,173557
Jackson,32.29876,-90.18481,173514
Shimla,31.10442,77.16662,173503
Overland Park,38.98223,-94.67079,173372
Myeik,12.43954,98.60028,173298
East New York,40.66677,-73.88236,173198
Khān Yūnis,31.34018,34.30627,173183
Bata,1.86391,9.76582,173046
Midrand,-25.98953,28.12843,173009
Metepec,19.25934,-99.60175,172982
Ongole,15.50642,80.04867,172872
Licheng,23.29549,113.82465,172775
Salatiga,-7.33194,110.49278,172645
Miskolc,48.1,20.78333,172637
Isparta,37.76444,30.55222,172334
Weinan,34.50355,109.50891,172321
Kaolack,14.1825,-16.25333,172305
Walsall,52.58528,-1.98396,172141
Herne,51.5388,7.22572,172108
Lyublino,55.67923,37.7525,172000
Olsztyn,53.77995,20.49416,171803
Francisco Morato,-23.28167,-46.74528,171790
Hino,35.67306,139.40028,171777
Netanya,32.33291,34.85992,171676
Nanping,26.645,118.17361,171674
Bida,9.08044,6.0099,171656
La Paz,24.13811,-110.30973,171485
Prizren,42.21389,20.73972,171464
Dongling,41.81444,123.57583,171454
Bacău,46.56667,26.9,171396
Phra Pradaeng,13.65855,100.53362,171333
Mülheim (Ruhr),51.43333,6.88333,171000
Kulim,5.36499,100.56177,170889
Garden Grove,33.77391,-117.94145,170883
Swansea,51.62079,-3.94323,170883
Puri,19.79825,85.82494,170841
Haldia,22.06046,88.10975,170695
Temirtau,50.05494,72.96464,170600
Jacobābād,28.281,68.43876,170588
Khammam,17.24767,80.14368,170503
Carolina,18.38078,-65.95739,170404
Uvira,-3.39534,29.13779,170391
Portoviejo,-1.05458,-80.45445,170326
Rāiganj,25.61281,88.12449,170252
Takaoka,36.75,137.01667,170077
Ingrāj Bāzār,25.00447,88.14573,170039
Araçatuba,-21.20889,-50.43278,170024
Fuyang,32.9,115.81667,170023
Horta-Guinardó,41.41849,2.1677,169920
Kluang,2.03046,103.31689,169828
Albacete,38.99424,-1.85643,169716
Laiyang,36.97583,120.71361,169594
Jaunpur,25.75506,82.68361,169572
Reggio Calabria,38.11047,15.66129,169140
Jaffna,9.66845,80.00742,169102
Arad,46.18333,21.31667,169065
Bahir Dar,11.59364,37.39077,168899
Baranovichi,53.1327,26.0139,168772
Toulon,43.11667,5.93333,168701
Jabālyā,31.5272,34.48347,168568
Araraquara,-21.79444,-48.17556,168468
Bordj Bou Arreridj,36.07321,4.76108,168346
Angers,47.46667,-0.55,168279
Pátra,38.24444,21.73444,168034
Alcorcón,40.34582,-3.82487,167967
Ech Chettia,36.19591,1.25537,167955
Jamālpur,24.91965,89.94812,167900
Ferraz de Vasconcelos,-23.54083,-46.36861,167900
Chirchiq,41.46889,69.58222,167842
Santa Rosa,38.44047,-122.71443,167815
Eloy Alfaro,-2.17579,-79.85519,167784
Jingmen,31.03361,112.20472,167750
Berezniki,59.4091,56.8204,167748
Awka,6.21253,7.07231,167738
Volgodonsk,47.51361,42.15139,167731
Chattanooga,35.04563,-85.30968,167674
Breda,51.58656,4.77596,167673
Khouribga,32.88108,-6.9063,167673
Piteşti,44.85,24.86667,167669
Hollywood,34.09834,-118.32674,167664
Ijero-Ekiti,7.81514,5.06716,167632
Miass,55.045,60.10833,167500
Korhogo,9.45803,-5.62961,167359
Abakan,53.71556,91.42917,167289
Fianarantsoa,-21.45267,47.08569,167227
Getafe,40.30571,-3.73295,167164
Plumbon,-6.705,108.47278,167105
Oceanside,33.19587,-117.37948,167086
Banhā,30.45906,31.17858,167029
Novocherkassk,47.42018,40.09132,166974
Arapiraca,-9.7525,-36.66111,166562
Fuling,29.706,107.39575,166507
Daşoguz,41.83625,59.96661,166500
Fatehpur,25.93036,80.8139,166480
Osnabrück,52.27264,8.0498,166462
Beni Mellal,32.33725,-6.34983,166399
Gāndhīdhām,23.08333,70.13333,166388
Idfu,24.98028,32.87472,166102
Ocumare del Tuy,10.11649,-66.77609,166072
Gaozhou,21.93924,110.84607,166069
Kamakura,35.30889,139.55028,166016
Ulanhot,46.08333,122.08333,165846
Khobar,26.27944,50.20833,165799
H̱olon,32.01034,34.77918,165787
Shanwei,22.78199,115.3475,165699
Oakville,43.45011,-79.68292,165697
Fort Lauderdale,26.12231,-80.14338,165521
Tuluá,4.08466,-76.19536,165501
Bandar-e Būshehr,28.9684,50.8385,165377
Nandyāl,15.48879,78.48648,165337
Rancho Cucamonga,34.1064,-117.59311,165269
Chilpancingo de los Bravos,17.5506,-99.50578,165250
Saga-shi,33.24932,130.2988,165236
Esmeraldas,0.9592,-79.65397,165216
Muzaffargarh,30.07537,71.19213,165192
Jiaozhou,36.28389,120.00333,165026
Nou Barris,41.44163,2.17727,164981
Banjaran,-7.04528,107.58778,164952
Szeged,46.253,20.14824,164883
Fendou,45.21235,130.90254,164844
Loni,28.75153,77.288,164810
Serang,-6.1149,106.1502,164767
Lages,-27.81611,-50.32611,164676
Port Saint Lucie,27.29393,-80.35033,164603
Basel,47.55839,7.57327,164488
Sītāpur,27.56192,80.68265,164435
Zenica,44.20169,17.90397,164423
Burlington,43.38621,-79.83713,164415
Solingen,51.17343,7.0845,164359
Fergana,40.38421,71.78432,164322
Kigoma,-4.87694,29.62667,164268
Murīdke,31.8025,74.26167,164246
Shivpurī,25.42348,77.66067,164215
Ḩawallī,29.33278,48.02861,164212
Pilsen,49.74747,13.37759,164180
Inisa,7.85,4.33333,164161
Nazran’,43.22597,44.77323,164131
Sousse,35.82539,10.63699,164123
Bejaïa,36.75587,5.08433,164103
Jhelum,32.93313,73.72637,164080
Barra Mansa,-22.54417,-44.17139,164052
Chalco de Díaz Covarrubias,19.26174,-98.89775,163996
Nossa Senhora do Socorro,-10.855,-37.12611,163993
Ontario,34.06334,-117.65089,163924
Bhadrāvati,13.84846,75.70502,163903
Vinh,18.67337,105.69232,163759
Parakou,9.33716,2.63031,163753
Unaizah,26.08427,43.99355,163729
Piraeus,37.94745,23.63708,163688
Ādoni,15.62509,77.27536,163631
Bournemouth,50.72048,-1.8795,163600
Sidon,33.55993,35.37564,163554
Maradi,13.5,7.10174,163487
Tsu-shi,34.73028,136.50861,163461
Southend-on-Sea,51.53782,0.71433,163377
Verāval,20.9077,70.36786,163326
Tongzhou,39.90395,116.66183,163326
Ludwigshafen am Rhein,49.48121,8.44641,163196
Büyükçekmece,41.02072,28.58502,163140
Şalālah,17.01505,54.09237,163140
Aydın,37.84501,27.83963,163022
Envigado,6.17591,-75.59174,163007
Geneina,13.45262,22.44725,162981
Anbu,23.44895,116.68092,162964
Sambalpur,21.45,83.96667,162887
Leverkusen,51.0303,6.98432,162738
Skikda,36.87617,6.90921,162702
La Rioja,-29.41105,-66.85067,162620
Gadag,15.42977,75.62971,162569
Mahābād,36.7631,45.7222,162434
Jiutepec,18.88139,-99.17778,162427
Dourados,-22.22111,-54.80556,162202
Suleja,9.18059,7.17939,162135
Criciúma,-28.6775,-49.36972,161954
Kunduz,36.72895,68.857,161902
San Miguel,13.48333,-88.18333,161880
Vancouver,45.63873,-122.66149,161791
Tempe,33.41477,-111.90931,161719
Sapele,5.89405,5.67666,161686
Unnāo,26.54706,80.48781,161671
Hortaleza,40.47444,-3.6411,161661
Budaun,28.0362,79.12631,161555
Coquimbo,-29.95332,-71.33947,161317
Jīnd,29.31617,76.31436,161260
Madhyamgram,22.68944,88.44594,161126
Rubtsovsk,51.51473,81.20613,161065
Sayama,35.85295,139.41212,160843
Sullana,-4.90389,-80.68528,160789
Malakal,9.53342,31.66049,160765
La Gi,10.65993,107.77206,160652
Phan Thiết,10.92889,108.10208,160652
Mytishchi,55.91163,37.73076,160542
Kawanishi,34.81667,135.41667,160520
Hebron,31.52935,35.0938,160470
Xiaogan,30.92689,113.92221,160437
Mejicanos,13.74028,-89.21306,160317
Jāmuria,23.70468,87.07872,160242
Chapecó,-27.09639,-52.61833,160157
Taunggyi,20.78919,97.03776,160115
Dhamār,14.54274,44.40514,160114
Puerto Montt,-41.46574,-72.94289,160054
İskenderun,36.58718,36.17347,159965
Oyama,36.3,139.8,159936
Salavat,53.38365,55.90773,159893
Ziguinchor,12.58333,-16.27194,159778
Skudai,1.53741,103.65779,159733
Ashikaga,36.33333,139.45,159671
Springfield,37.21533,-93.29824,159498
Bawshar,23.55563,58.3989,159487
Zhicheng,30.29556,111.50472,159383
Lawang,-7.8353,112.6947,159380
San Miguel del Padrón,23.06639,-82.29472,159273
Tarija,-21.53549,-64.72956,159269
Oldenburg,53.14118,8.21467,159218
Bibirevo,55.88333,37.6,159000
Khoroshëvo-Mnevniki,55.78363,37.47137,159000
Osan,37.15222,127.07056,158978
Modena,44.64783,10.92539,158886
Nijmegen,51.8425,5.85278,158732
Jaigaon,26.84766,89.37558,158664
Pasuruan,-7.6453,112.9075,158600
Cuddalore,11.74629,79.76436,158569
Grenoble,45.16667,5.71667,158552
Sāmarrā’,34.1959,43.88568,158508
Maykop,44.60778,40.10583,158451
Rzeszów,50.04132,21.99901,158382
Tempe Junction,33.41421,-111.94348,158368
El Achir,36.06386,4.62744,158333
Huzhou,30.8703,120.0933,158320
Barreiras,-12.15278,-44.99,158292
Orai,25.99074,79.45315,158265
Long Xuyên,10.38639,105.43518,158153
Centro Habana,23.13833,-82.36417,158151
Hoshiārpur,31.53238,75.90799,158142
Gol’yanovo,55.82299,37.81306,158000
Melitopol’,46.84891,35.36533,158000
Sobral,-3.68611,-40.34972,157996
Sunggal,3.5765,98.6151,157914
Admiralteisky,59.90839,30.28484,157897
Greater Sudbury,46.49,-80.99001,157857
Ţalkhā,31.0539,31.37787,157737
San Blas,40.43893,-3.61537,157367
Laventille,10.64917,-61.49889,157258
Perbaungan,3.5679,98.956,157174
Pallāvaram,12.96796,80.15025,157145
Ussuriysk,43.80291,131.94578,157068
Nanpiao,41.09822,120.74792,157044
Tiraspolul Nou,46.84274,29.62909,157000
Moshi,-3.35,37.33333,156959
Toledo,10.3773,123.6386,156916
Shikārpur,27.95706,68.63789,156901
Westonaria,-26.31905,27.6486,156831
Hitachi-Naka,36.39659,140.53479,156811
Matsue-shi,35.47222,133.05056,156811
Souk Ahras,36.28639,7.95111,156745
Osogbo,7.77104,4.55698,156694
Sihanoukville,10.60932,103.52958,156691
Pécs,46.08333,18.23333,156649
Lancaster,34.69804,-118.13674,156633
Ruse,43.85639,25.97083,156238
Batu Pahat,1.8548,102.9325,156236
Eugene,44.05207,-123.08675,156185
Lampang,18.29232,99.49277,156139
Nagareyama,35.8563,139.90266,156000
Katsuta,36.38333,140.53333,155968
Malabo,3.75,8.78333,155963
Kumagaya,36.13497,139.39004,155813
Tema,5.6698,-0.01657,155782
Yichun,47.72143,128.87529,155762
Itajaí,-26.90778,-48.66194,155716
Seogwipo,33.25333,126.56181,155691
Hanumāngarh,29.58182,74.32938,155687
Salamanca,40.96882,-5.66388,155619
Zemun,44.84306,20.40111,155591
Kisi,9.08297,3.85196,155510
Ilhéus,-14.79364,-39.03949,155499
Swindon,51.55797,-1.78116,155432
Guyong,14.8361,120.97844,155391
Kyonju,35.84278,129.21167,155237
Port Louis,-20.16194,57.49889,155226
Kānchipuram,12.83515,79.70006,155029
Tetuán de las Victorias,40.46667,-3.71667,155000
Lianghu,29.99152,120.89845,155000
Beipiao,41.79194,120.77917,154999
Guangshui,31.6199,113.9978,154771
Pembroke Pines,26.00315,-80.22394,154750
Middelburg,-25.77507,29.46482,154706
Mahajanga,-15.71667,46.31667,154657
Lyubertsy,55.67719,37.89322,154650
Salem,44.9429,-123.0351,154637
Butembo,0.14164,29.29117,154621
Oxford,51.75222,-1.25596,154566
La Serena,-29.90453,-71.24894,154521
Leshan,29.56227,103.76386,154477
Gandajika,-6.74504,23.95328,154425
Zhaodong,46.06771,125.98263,154406
Bené Beraq,32.08074,34.8338,154400
Ambato,-1.24908,-78.61675,154369
Cape Coral,26.56285,-81.94953,154305
Djelfa,34.67279,3.263,154265
Pasarkemis,-6.17028,106.53028,154234
Kovrov,56.35722,41.31917,154224
Viranşehir,37.22349,39.75519,154163
Tottori,35.5,134.23333,154098
Peoria,33.5806,-112.23738,154065
San Cristóbal,18.41667,-70.1,154040
East Chattanooga,35.06535,-85.24912,154024
Xinzhou,38.40917,112.73333,154003
Limassol,34.68406,33.03794,154000
Gondar,12.6,37.46667,153914
Sioux Falls,43.54997,-96.70033,153888
Alandur,13.0025,80.20611,153775
Livorno,43.54427,10.32615,153773
Río Cuarto,-33.13067,-64.34992,153757
Sanshui,23.15486,112.89161,153714
Guna,24.64761,77.31191,153689
Hāfizābād,32.06786,73.68545,153656
Enschede,52.21833,6.89583,153655
Angra dos Reis,-23.00667,-44.31806,153635
Bahādurgarh,28.69108,76.9316,153613
Boshan,36.48333,117.83333,153596
Yangchun,22.16667,111.78333,153547
Bharūch,21.69482,72.9805,153528
Nova Friburgo,-22.28194,-42.53111,153361
Medinīpur,22.42114,87.32257,153349
Chincha Alta,-13.40985,-76.13235,153076
Cairns,-16.92304,145.76625,153075
Springfield,42.10148,-72.58981,153060
Faizābād,26.77691,82.13292,153047
Elk Grove,38.4088,-121.37162,153015
Dānāpur,25.6368,85.04586,152940
Linhai,28.84815,121.12807,152937
Dingzhou,38.51306,114.99556,152934
Rondonópolis,-16.47083,-54.63556,152912
As Samawah,31.33198,45.2944,152890
Rockford,42.27113,-89.094,152871
Uşak,38.67351,29.4058,152862
Palmdale,34.57943,-118.11646,152750
Jizzax,40.11583,67.84222,152642
Hamilton,-37.78333,175.28333,152641
Ponce,18.01108,-66.61406,152634
Weihai,37.50914,122.11356,152595
Baqubah,33.74659,44.64366,152550
Neuss,51.19807,6.68504,152457
Chenghua,23.46132,116.77007,152453
Songnim,38.75417,125.645,152425
Silchar,24.82733,92.79787,152393
Corona,33.87529,-117.56644,152374
Bānda,25.47534,80.3358,152218
Aksaray,38.37255,34.02537,152201
Cần Giuộc,10.60857,106.67135,152200
Kerch,45.3607,36.4706,152195
Deyang,31.13019,104.38198,152194
Yichun,27.83333,114.4,152169
Logroño,42.46667,-2.45,152107
Ōta,36.3,139.36667,152104
Longfeng,46.53168,125.1038,152074
Morena,26.50286,78.00163,152004
Strogino,55.81838,37.41224,152000
Bảo Lộc,11.54798,107.80772,151915
Sibiu,45.8,24.15,151894
Guacara,10.22609,-67.877,151752
Abbotsford,49.05798,-122.25257,151683
Cholula,19.06406,-98.30352,151667
Bintulu,3.16667,113.03333,151617
Itapecerica da Serra,-23.71694,-46.84917,151605
Dundee,56.46913,-2.97489,151592
Kohāt,33.58196,71.44929,151427
Tonk,26.16638,75.78824,151331
Qingyuan,23.7,113.03333,151287
Saqqez,36.24992,46.2735,151237
Benguela,-12.57626,13.40547,151226
Komaki,35.28333,136.91667,151025
El Tigre,8.88752,-64.24544,150999
Soreang,-7.03306,107.51833,150932
Minatitlan,17.99925,-94.55441,150895
Guarapuava,-25.39048,-51.46541,150850
Gaomi,36.38333,119.75278,150793
Rāj Nāndgaon,21.1,81.03333,150755
Loudi,27.73444,111.99444,150684
La Laguna,28.4853,-16.32014,150661
Ōgaki,35.35,136.61667,150570
Higashimurayama-shi,35.75459,139.46852,150556
Serilingampalle,17.49313,78.30196,150525
Huangyan,28.6501,121.26591,150448
Battambang,13.10271,103.19822,150444
Salinas,36.67774,-121.6555,150441
Chillán,-36.60664,-72.10344,150396
Virār,19.45591,72.81136,150357
Parnamirim,-5.91556,-35.26278,150343
Salzburg,47.79941,13.04399,150269
Bago City,10.53333,122.83333,150250
Purwodadi,-7.0868,110.9158,150206
Piedras Negras,28.70007,-100.52353,150178
Kızıltepe,37.19319,40.58799,150174
Urganch,41.55,60.63333,150110
Balashikha,55.80945,37.95806,150103
Poole,50.71667,-2,150092
Vryheid,-27.76952,30.79165,150012
Zhulebino,55.7,37.85,150000
Mossel Bay,-34.18307,22.14605,150000
Dili,-8.55861,125.57361,150000
Malkajgiri,17.44781,78.52633,150000
Mascara,35.39664,0.14027,150000
Gimcheon,36.12176,128.11981,150000
Shāntipur,23.24723,88.43302,149983
Dijon,47.31667,5.01667,149782
City Center,40.41831,-3.70275,149718
Metro,-5.11306,105.30667,149526
Ōme,35.78389,139.24306,149323
Cagliari,39.23054,9.11917,149257
Pomona,34.05529,-117.75228,149058
Pasadena,29.69106,-95.2091,149043
Huddersfield,53.64904,-1.78416,149017
Prenzlauer Berg,52.53878,13.42443,148878
Dunhua,43.3725,128.2425,148844
Huelva,37.26638,-6.94004,148806
Arganzuela,40.40021,-3.69618,148797
Chingola,-12.52897,27.88382,148564
‘Ar‘ar,30.97531,41.03808,148540
Yulin,22.63333,110.15,148485
Valencia,34.44361,-118.60953,148456
Gyumri,40.7942,43.84528,148381
Chizhou,30.66134,117.47783,148375
Moriguchi,34.73333,135.56667,148350
Badajoz,38.87789,-6.97061,148334
El Limón,10.30589,-67.63212,148247
Lubuklinggau,-3.2945,102.8614,148243
Nîmes,43.83333,4.35,148236
Bārākpur,22.76602,88.36336,148174
Palangkaraya,-2.2136,113.9108,148139
Sujiatun,41.65917,123.33917,148113
Caxias,-4.85889,-43.35611,148072
Thành Phố Hạ Long,20.95045,107.07336,148066
Astanajapura,-6.8017,108.6311,148047
Jijel,36.82055,5.76671,148000
East Hampton,37.03737,-76.33161,147993
Honggang,46.40124,124.88322,147977
Huánuco,-9.93062,-76.24223,147959
Médéa,36.26417,2.75393,147707
Salamanca,40.42972,-3.67975,147707
Kolomna,55.07944,38.77833,147690
Rafsanjān,30.4067,55.9939,147680
Ursynów,52.15051,21.05041,147676
Mestre,45.47152,12.24017,147662
As Sālimīyah,29.33389,48.07611,147649
Haarlem,52.38084,4.63683,147590
Khon Kaen,16.44671,102.833,147579
El Jadida,33.25492,-8.50602,147549
Kreuzberg,52.49973,13.40338,147532
Kragujevac,44.01667,20.91667,147473
Aktau,43.64806,51.17222,147443
Joliet,41.52519,-88.0834,147433
Nilópolis,-22.8075,-43.41389,147281
Erode,11.3428,77.72741,147270
Trondheim,63.43049,10.39506,147139
Manama,26.21536,50.5832,147074
Buôn Ma Thuột,12.66747,108.03775,146975
Kalemie,-5.94749,29.19471,146974
Nakhodka,42.81384,132.87348,146920
Târgu-Mureş,46.54245,24.55747,146863
Gulu,2.77457,32.29899,146858
Aix-en-Provence,43.5283,5.44973,146821
Ambāla,30.36285,76.79516,146787
Cam Ranh,11.92144,109.15913,146771
Matanzas,23.04111,-81.5775,146733
Saint-Quentin-en-Yvelines,48.77186,2.01891,146598
Poços de Caldas,-21.78778,-46.56139,146588
Parma,44.79935,10.32618,146299
Paterson,40.91677,-74.17181,146199
Ruda Śląska,50.2584,18.85632,146189
Cuautla Morelos,18.80459,-98.94555,146178
Afyonkarahisar,38.75667,30.54333,146136
Gweru,-19.45,29.81667,146073
Qujing,25.48333,103.78333,146015
Puerto Plata,19.79344,-70.6884,146000
